,title,release_year,locations,Input Name,Best Guess,Unnamed: 0,index,eas_baseid,address,address_number,street_name,street_type,zip_code,cnn,longitude,latitude,point,supdist,supdistpad,numbertext,nhood,data_as_of,data_loaded_at,address_number_suffix,complete_landmark_name,release_decade
0,Always Be My Maybe,2019,717 grant ave,717 grant ave,717 grant ave,198549.0,3549.0,280307.0,717 grant ave,717.0,grant,ave,94108.0,6393000.0,-122.40636378,37.79364769,"{'type': 'Point', 'coordinates': [-122.406363779, 37.793647693]}",SUPERVISORIAL DISTRICT 3,3.0,THREE,Chinatown,2025-01-19T03:36:00.000,2025-01-19T10:04:00.630,,,2010
1,DEVS,2020,filbert btwn powell and stockton,filbert btwn powell and stockton,310 b filbert st,125460.0,460.0,447288.0,310 b filbert st,310.0,filbert,st,94133.0,5494001.0,-122.40511485,37.80218768,"{'type': 'Point', 'coordinates': [-122.405114853, 37.802187682]}",SUPERVISORIAL DISTRICT 3,3.0,THREE,North Beach,2025-01-19T03:38:00.000,2025-01-19T10:04:00.630,B,,2020
2,Faces of Death,1978,Empty,Empty,Empty,,,,,,,,,,,,,,,,nan,,,,,1970
3,Romeo Must Die,2000,embarcadero street,embarcadero street,0 the embarcadero,21.0,21.0,481023.0,0 the embarcadero,0.0,embarcadero,,94105.0,12549201.0,-122.38636372,37.78812404,"{'type': 'Point', 'coordinates': [-122.386363719, 37.78812404]}",SUPERVISORIAL DISTRICT 6,6.0,SIX,Financial District/South Beach,2025-01-19T03:38:00.000,2025-01-19T10:04:00.630,,,2000
4,San Andreas,2015,fort baker,fort baker,1 baker st,74062.0,4062.0,298036.0,1 baker st,1.0,baker,st,94117.0,2604000.0,-122.44075372,37.77107289,"{'type': 'Point', 'coordinates': [-122.440753723, 37.771072891]}",SUPERVISORIAL DISTRICT 5,5.0,FIVE,Haight Ashbury,2025-01-19T03:36:00.000,2025-01-19T10:04:00.630,,,2010
5,The Organization,1971,Empty,Empty,Empty,,,,,,,,,,,,,,,,nan,,,,,1970
6,DEVS,2020,brannan btwn 3rd and 6th st,brannan btwn 3rd and 6th st,326 brannan st,130298.0,298.0,366253.0,326 brannan st,326.0,brannan,st,94107.0,3075000.0,-122.39289649,37.78150797,"{'type': 'Point', 'coordinates': [-122.392896492, 37.781507975]}",SUPERVISORIAL DISTRICT 6,6.0,SIX,Financial District/South Beach,2025-01-19T03:37:00.000,2025-01-19T10:04:00.630,,,2020
7,Chance- Season 1 ep103,2016,17th and arkansas,17th and arkansas,133 a arkansas st,26602.0,1602.0,493125.0,133 a arkansas st,133.0,arkansas,st,94107.0,2436000.0,-122.39835875,37.76449301,"{'type': 'Point', 'coordinates': [-122.398358747, 37.764493012]}",SUPERVISORIAL DISTRICT 10,10.0,TEN,Potrero Hill,2025-01-19T03:39:00.000,2025-01-19T10:04:00.630,A,,2010
8,Getting Even with Dad,1994,california & grant streets,california & grant streets,1 california st,74109.0,4109.0,280800.0,1 california st,1.0,california,st,94111.0,3524000.0,-122.39704304,37.79321375,"{'type': 'Point', 'coordinates': [-122.397043036, 37.793213746]}",SUPERVISORIAL DISTRICT 3,3.0,THREE,Financial District/South Beach,2025-01-19T03:36:00.000,2025-01-19T10:04:00.630,,,1990
9,Night of Henna,2005,Empty,Empty,Empty,,,,,,,,,,,,,,,,nan,,,,,2000
10,The Matrix Resurrections,2021,california at grant ave,california at grant ave,275 california ave,113834.0,3834.0,483483.0,275 california ave,275.0,california,ave,94130.0,14019001.0,-122.37000267,37.81904201,"{'type': 'Point', 'coordinates': [-122.370002666, 37.819042011]}",SUPERVISORIAL DISTRICT 6,6.0,SIX,Treasure Island,2025-01-19T03:38:00.000,2025-01-19T10:04:00.630,,,2020
11,DEVS,2020,21st st at san carlos,21st st at san carlos,15 a san carlos st,48482.0,3482.0,483069.0,15 a san carlos st,15.0,san carlos,st,94110.0,11403000.0,-122.42011379,37.76242176,"{'type': 'Point', 'coordinates': [-122.420113786, 37.762421764]}",SUPERVISORIAL DISTRICT 9,9.0,NINE,Mission,2025-01-19T03:38:00.000,2025-01-19T10:04:00.630,A,,2020
12,The Towering Inferno,1974,"fairmont hotel (950 mason street, nob hill)","fairmont hotel (950 mason street, nob hill)",950 mason st,221075.0,1075.0,280508.0,950 mason st,950.0,mason,st,94108.0,8812000.0,-122.41067191,37.79217524,"{'type': 'Point', 'coordinates': [-122.410671906, 37.792175242]}",SUPERVISORIAL DISTRICT 3,3.0,THREE,Nob Hill,2025-01-19T03:36:00.000,2025-01-19T10:04:00.630,,,1970
13,Fearless,1993,400 montgomery street,400 montgomery street,400 montgomery st,149711.0,4711.0,280455.0,400 montgomery st,400.0,montgomery,st,94104.0,9301000.0,-122.40256718,37.79314864,"{'type': 'Point', 'coordinates': [-122.402567175, 37.793148642]}",SUPERVISORIAL DISTRICT 3,3.0,THREE,Financial District/South Beach,2025-01-19T03:36:00.000,2025-01-19T10:04:00.630,,,1990
14,The Phone/Jexi,2019,1423 golden gate ave,1423 golden gate ave,1423 golden gate ave,34075.0,4075.0,474749.0,1423 golden gate ave,1423.0,golden gate,ave,94115.0,6272000.0,-122.43408794,37.77905718,"{'type': 'Point', 'coordinates': [-122.43408794, 37.779057179]}",SUPERVISORIAL DISTRICT 5,5.0,FIVE,Western Addition,2025-01-19T03:38:00.000,2025-01-19T10:04:00.630,,,2010
15,Pacific Heights,1990,texas & 19th streets (potrero hill),texas & 19th streets (potrero hill),179 texas st,62610.0,2610.0,503428.0,179 texas st,179.0,texas,st,94107.0,12539000.0,-122.39558077,37.76429043,"{'type': 'Point', 'coordinates': [-122.395580765, 37.764290432]}",SUPERVISORIAL DISTRICT 10,10.0,TEN,Potrero Hill,2025-01-19T03:40:00.000,2025-01-19T10:04:00.630,,,1990
16,Sense8,2015,z space studios; 450 florida st.,z space studios; 450 florida st.,450 florida st,160879.0,879.0,451223.0,450 florida st,450.0,florida,st,94110.0,5621000.0,-122.41175076,37.76358273,"{'type': 'Point', 'coordinates': [-122.411750756, 37.763582732]}",SUPERVISORIAL DISTRICT 9,9.0,NINE,Mission,2025-01-19T03:38:00.000,2025-01-19T10:04:00.630,,,2010
17,Steve Jobs,2015,intersection of columbus and kearny,intersection of columbus and kearny,4 columbus ave,168376.0,3376.0,279801.0,4 columbus ave,4.0,columbus,ave,94111.0,4286000.0,-122.40364725,37.79601406,"{'type': 'Point', 'coordinates': [-122.403647251, 37.796014065]}",SUPERVISORIAL DISTRICT 3,3.0,THREE,Chinatown,2025-01-19T03:36:00.000,2025-01-19T10:04:00.630,,,2010
18,Looking Season 2 ep 209,2015,8 octavia street,8 octavia street,8 octavia st,217423.0,2423.0,483419.0,8 octavia st,8.0,octavia,st,94102.0,9875201.0,-122.4233932,37.77258668,"{'type': 'Point', 'coordinates': [-122.423393202, 37.772586681]}",SUPERVISORIAL DISTRICT 6,6.0,SIX,Hayes Valley,2025-01-19T03:38:00.000,2025-01-19T10:04:00.630,,,2010
19,A View to a Kill,1985,"burger island (901 3rd street, china basin)","burger island (901 3rd street, china basin)",691 china basin st,195741.0,741.0,491953.0,691 china basin st,691.0,china basin,st,94158.0,15026000.0,-122.39269363,37.77166575,"{'type': 'Point', 'coordinates': [-122.392693627, 37.771665746]}",SUPERVISORIAL DISTRICT 6,6.0,SIX,Mission Bay,2025-01-19T03:38:00.000,2025-01-19T10:04:00.630,,,1980
20,Looking,2014,st. francis fountain,st. francis fountain,56 a francis st,180055.0,55.0,491184.0,56 a francis st,56.0,francis,st,94112.0,5753000.0,-122.43434951,37.72730319,"{'type': 'Point', 'coordinates': [-122.434349513, 37.727303191]}",SUPERVISORIAL DISTRICT 11,11.0,ELEVEN,Outer Mission,2025-01-19T03:38:00.000,2025-01-19T10:04:00.630,A,,2010
21,Chance- Season 1 ep102,2016,heron and berwick alleys,heron and berwick alleys,7 heron st,208324.0,3324.0,365928.0,7 heron st,7.0,heron,st,94103.0,6893000.0,-122.40829008,37.77458667,"{'type': 'Point', 'coordinates': [-122.408290082, 37.774586669]}",SUPERVISORIAL DISTRICT 6,6.0,SIX,South of Market,2025-01-19T03:37:00.000,2025-01-19T10:04:00.630,,,2010
22,Memoirs of an Invisible Man,1992,st. elizabeth apartment house (901 powell street at sacramento),st. elizabeth apartment house (901 powell street at sacramento),2916 a sacramento st,119118.0,4118.0,292599.0,2916 a sacramento st,2916.0,sacramento,st,94115.0,11261000.0,-122.44152778,37.78915473,"{'type': 'Point', 'coordinates': [-122.441527782, 37.789154734]}",SUPERVISORIAL DISTRICT 2,2.0,TWO,Pacific Heights,2025-01-19T03:36:00.000,2025-01-19T10:04:00.630,A,,1990
23,GirlBoss,2017,fillmore and waller,fillmore and waller,105 a fillmore st,4260.0,4260.0,492494.0,105 a fillmore st,105.0,fillmore,st,94117.0,5530000.0,-122.43037113,37.77040075,"{'type': 'Point', 'coordinates': [-122.430371127, 37.770400752]}",SUPERVISORIAL DISTRICT 5,5.0,FIVE,Hayes Valley,2025-01-19T03:39:00.000,2025-01-19T10:04:00.630,A,,2010
24,Looking Season 2 ep 204,2015,"dolores park, san francisco","dolores park, san francisco",2 francisco st,121505.0,1505.0,275975.0,2 francisco st,2.0,francisco,st,94111.0,5754000.0,-122.40511883,37.80597054,"{'type': 'Point', 'coordinates': [-122.40511883, 37.805970537]}",SUPERVISORIAL DISTRICT 3,3.0,THREE,North Beach,2025-01-19T03:36:00.000,2025-01-19T10:04:00.630,,,2010
25,Time After Time,1979,lombard & broderick streets (marina district),lombard & broderick streets (marina district),819 c lombard st,210319.0,319.0,493041.0,819 c lombard st,819.0,lombard,st,94133.0,8446000.0,-122.41506718,37.80226661,"{'type': 'Point', 'coordinates': [-122.415067176, 37.802266611]}",SUPERVISORIAL DISTRICT 3,3.0,THREE,Russian Hill,2025-01-19T03:39:00.000,2025-01-19T10:04:00.630,C,,1970
26,Experiment in Terror,1962,the sea captain's chest (fisherman's wharf),the sea captain's chest (fisherman's wharf),12 sherman st,22722.0,2722.0,365900.0,12 sherman st,12.0,sherman,st,94103.0,11803000.0,-122.4068039,37.7770094,"{'type': 'Point', 'coordinates': [-122.406803895, 37.7770094]}",SUPERVISORIAL DISTRICT 6,6.0,SIX,South of Market,2025-01-19T03:37:00.000,2025-01-19T10:04:00.630,,,1960
27,Time After Time,1979,lombard & divisadero streets (marina district),lombard & divisadero streets (marina district),4 divisadero st,168394.0,3394.0,274938.0,4 divisadero st,4.0,divisadero,st,94117.0,4796000.0,-122.43624595,37.76742383,"{'type': 'Point', 'coordinates': [-122.436245945, 37.767423826]}",SUPERVISORIAL DISTRICT 8,8.0,EIGHT,Castro/Upper Market,2025-01-19T03:36:00.000,2025-01-19T10:04:00.630,,,1970
28,The Bachelor,1999,danilo's bakery (green street & bannam place),danilo's bakery (green street & bannam place),304 a green st,123559.0,3559.0,447814.0,304 a green st,304.0,green,st,94133.0,6444001.0,-122.40456553,37.80025835,"{'type': 'Point', 'coordinates': [-122.404565533, 37.800258347]}",SUPERVISORIAL DISTRICT 3,3.0,THREE,North Beach,2025-01-19T03:38:00.000,2025-01-19T10:04:00.630,A,,1990
29,Venom,2018,hyde st at chestnut st,hyde st at chestnut st,377 a chestnut st,144429.0,4429.0,450823.0,377 a chestnut st,377.0,chestnut,st,94133.0,3955000.0,-122.40939492,37.80400923,"{'type': 'Point', 'coordinates': [-122.409394915, 37.804009229]}",SUPERVISORIAL DISTRICT 3,3.0,THREE,North Beach,2025-01-19T03:38:00.000,2025-01-19T10:04:00.630,A,,2010
30,Tales of the City,2019,grant and green st,grant and green st,304 a green st,123559.0,3559.0,447814.0,304 a green st,304.0,green,st,94133.0,6444001.0,-122.40456553,37.80025835,"{'type': 'Point', 'coordinates': [-122.404565533, 37.800258347]}",SUPERVISORIAL DISTRICT 3,3.0,THREE,North Beach,2025-01-19T03:38:00.000,2025-01-19T10:04:00.630,A,,2010
31,Dirty Harry,1971,"st. peter & paul's church (666 filbert street, washington square)","st. peter & paul's church (666 filbert street, washington square)",1062 a washington st,4524.0,4524.0,454868.0,1062 a washington st,1062.0,washington,st,94108.0,13423000.0,-122.41070291,37.79487256,"{'type': 'Point', 'coordinates': [-122.410702905, 37.794872563]}",SUPERVISORIAL DISTRICT 3,3.0,THREE,Chinatown,2025-01-19T03:38:00.000,2025-01-19T10:04:00.630,A,,1970
32,Chef Dynasty: House of Fang,2022,"660 howard, fang chinese restaurant","660 howard, fang chinese restaurant",1166 a howard st,11448.0,1448.0,473134.0,1166 a howard st,1166.0,howard,st,94103.0,7050000.0,-122.41147432,37.77680775,"{'type': 'Point', 'coordinates': [-122.411474317, 37.776807747]}",SUPERVISORIAL DISTRICT 6,6.0,SIX,South of Market,2025-01-19T03:38:00.000,2025-01-19T10:04:00.630,A,,2020
33,Milk,2008,city hall,city hall,Empty,,,,,,,,,,,,,,,,nan,,,,,2000
34,The Diary of a Teenage Girl,2015,specs' twelve adler museum café,specs' twelve adler museum café,2 museum way,121650.0,1650.0,464915.0,2 museum way,2.0,museum,way,94114.0,9463000.0,-122.44126481,37.76504557,"{'type': 'Point', 'coordinates': [-122.441264804, 37.765045571]}",SUPERVISORIAL DISTRICT 8,8.0,EIGHT,Castro/Upper Market,2025-01-19T03:38:00.000,2025-01-19T10:04:00.630,,,2010
35,Terminator - Genisys,2015,"mission st., embarcadero, and front between clay and market","mission st., embarcadero, and front between clay and market",0 the embarcadero,21.0,21.0,481023.0,0 the embarcadero,0.0,embarcadero,,94105.0,12549201.0,-122.38636372,37.78812404,"{'type': 'Point', 'coordinates': [-122.386363719, 37.78812404]}",SUPERVISORIAL DISTRICT 6,6.0,SIX,Financial District/South Beach,2025-01-19T03:38:00.000,2025-01-19T10:04:00.630,,,2010
36,Cherish,2002,387 fair oaks at 25th street,387 fair oaks at 25th street,276 a fair oaks st,114186.0,4186.0,469936.0,276 a fair oaks st,276.0,fair oaks,st,94110.0,5383000.0,-122.42419489,37.75228583,"{'type': 'Point', 'coordinates': [-122.424194894, 37.752285829]}",SUPERVISORIAL DISTRICT 8,8.0,EIGHT,Mission,2025-01-19T03:38:00.000,2025-01-19T10:04:00.630,A,,2000
37,Forrest Gump,1994,palace of fine arts (3301 lyon street),palace of fine arts (3301 lyon street),3301 lyon st,131399.0,1399.0,454272.0,3301 lyon st,3301.0,lyon,st,94123.0,8584000.0,-122.44829559,37.80188372,"{'type': 'Point', 'coordinates': [-122.448295586, 37.801883717]}",SUPERVISORIAL DISTRICT 2,2.0,TWO,Marina,2025-01-19T03:38:00.000,2025-01-19T10:04:00.630,,,1990
38,The OA Part II,2019,hyde st at pacific to washington st,hyde st at pacific to washington st,738 a washington st,201487.0,1487.0,476781.0,738 a washington st,738.0,washington,st,94108.0,13411000.0,-122.4057807,37.79548406,"{'type': 'Point', 'coordinates': [-122.405780694, 37.79548406]}",SUPERVISORIAL DISTRICT 3,3.0,THREE,Chinatown,2025-01-19T03:38:00.000,2025-01-19T10:04:00.630,A,,2010
39,Fearless,1993,kohl building (400 montgomery street),kohl building (400 montgomery street),400 montgomery st,149711.0,4711.0,280455.0,400 montgomery st,400.0,montgomery,st,94104.0,9301000.0,-122.40256718,37.79314864,"{'type': 'Point', 'coordinates': [-122.402567175, 37.793148642]}",SUPERVISORIAL DISTRICT 3,3.0,THREE,Financial District/South Beach,2025-01-19T03:36:00.000,2025-01-19T10:04:00.630,,,1990
40,Nash Bridges,2021,illinois street at 20th street,illinois street at 20th street,1301 a illinois st,22908.0,2908.0,485551.0,1301 a illinois st,1301.0,illinois,st,94107.0,7172000.0,-122.38647975,37.75511243,"{'type': 'Point', 'coordinates': [-122.386479747, 37.75511243]}",SUPERVISORIAL DISTRICT 10,10.0,TEN,Potrero Hill,2025-01-19T03:38:00.000,2025-01-19T10:04:00.630,A,,2020
41,Venom,2018,edinburgh castle (950 geary street),edinburgh castle (950 geary street),50 edinburgh st,169960.0,4960.0,387782.0,50 edinburgh st,50.0,edinburgh,st,94112.0,5085000.0,-122.42716398,37.72808846,"{'type': 'Point', 'coordinates': [-122.427163977, 37.728088463]}",SUPERVISORIAL DISTRICT 11,11.0,ELEVEN,Excelsior,2025-01-19T03:37:00.000,2025-01-19T10:04:00.630,,,2010
42,The Love Bug,1968,golden gate bridge,golden gate bridge,35 golden gate ave,139814.0,4814.0,504218.0,35 golden gate ave,35.0,golden gate,ave,94102.0,6259000.0,-122.41125013,37.78205104,"{'type': 'Point', 'coordinates': [-122.411250124, 37.782051037]}",SUPERVISORIAL DISTRICT 5,5.0,FIVE,Tenderloin,2025-01-19T03:40:00.000,2025-01-19T10:04:00.630,,,1960
43,Chance - Season 1 ep105,2016,"state garage, 818 leavenworth","state garage, 818 leavenworth",818 leavenworth st,210253.0,253.0,281068.0,818 leavenworth st,818.0,leavenworth,st,94109.0,8246000.0,-122.41490667,37.78880798,"{'type': 'Point', 'coordinates': [-122.414906667, 37.788807983]}",SUPERVISORIAL DISTRICT 3,3.0,THREE,Nob Hill,2025-01-19T03:36:00.000,2025-01-19T10:04:00.630,,,2010
44,Steve Jobs,2015,21st and sanchez st,21st and sanchez st,12 a sanchez st,22491.0,2491.0,358655.0,12 a sanchez st,12.0,sanchez,st,94114.0,11507000.0,-122.43160992,37.76902301,"{'type': 'Point', 'coordinates': [-122.43160992, 37.769023011]}",SUPERVISORIAL DISTRICT 8,8.0,EIGHT,Castro/Upper Market,2025-01-19T03:37:00.000,2025-01-19T10:04:00.630,A,,2010
45,"Murder in the First, Season 1",2014,1541 grove street,1541 grove street,1541 grove st,44423.0,4423.0,297027.0,1541 grove st,1541.0,grove,st,94117.0,6566000.0,-122.44204573,37.77515784,"{'type': 'Point', 'coordinates': [-122.442045725, 37.775157844]}",SUPERVISORIAL DISTRICT 5,5.0,FIVE,Lone Mountain/USF,2025-01-19T03:36:00.000,2025-01-19T10:04:00.630,,,2010
46,"Murder in the First, Season 1",2014,berry street between 3rd and 4th streets,berry street between 3rd and 4th streets,4 berry st,168351.0,3351.0,460853.0,4 berry st,4.0,berry,st,94107.0,2951000.0,-122.38852211,37.77987866,"{'type': 'Point', 'coordinates': [-122.388522112, 37.779878666]}",SUPERVISORIAL DISTRICT 6,6.0,SIX,Mission Bay,2025-01-19T03:38:00.000,2025-01-19T10:04:00.630,,,2010
47,Fearless,1993,90 gold street,90 gold street,90 gold st,218219.0,3219.0,454216.0,90 gold st,90.0,gold,st,94133.0,6249000.0,-122.40320041,37.79680472,"{'type': 'Point', 'coordinates': [-122.403200405, 37.796804717]}",SUPERVISORIAL DISTRICT 3,3.0,THREE,Chinatown,2025-01-19T03:38:00.000,2025-01-19T10:04:00.630,,,1990
48,Chef Dynasty: House of Fang,2022,chinatown - grant avenue between california and jackson st,chinatown - grant avenue between california and jackson st,1373 a california st,29893.0,4893.0,424246.0,1373 a california st,1373.0,california,st,94109.0,3546000.0,-122.41679143,37.79074643,"{'type': 'Point', 'coordinates': [-122.416791433, 37.790746429]}",SUPERVISORIAL DISTRICT 3,3.0,THREE,Nob Hill,2025-01-19T03:37:00.000,2025-01-19T10:04:00.630,A,,2020
49,The House on Telegraph Hill,1951,market street,market street,1 market st,74344.0,4344.0,364870.0,1 market st,1.0,market,st,94105.0,8737101.0,-122.39498594,37.79398386,"{'type': 'Point', 'coordinates': [-122.394985937, 37.793983856]}",SUPERVISORIAL DISTRICT 6,6.0,SIX,Financial District/South Beach,2025-01-19T03:37:00.000,2025-01-19T10:04:00.630,,,1950
50,Quitters,2015,21st st & sanchez,21st st & sanchez,201 sanchez st,75898.0,898.0,359534.0,201 sanchez st,201.0,sanchez,st,94114.0,11511000.0,-122.43078554,37.76570954,"{'type': 'Point', 'coordinates': [-122.430785537, 37.765709539]}",SUPERVISORIAL DISTRICT 8,8.0,EIGHT,Castro/Upper Market,2025-01-19T03:37:00.000,2025-01-19T10:04:00.630,,,2010
51,"Murder in the First, Season 2",2015,1400 16th street,1400 16th street,1400 16th st,31824.0,1824.0,366728.0,1400 16th st,1400.0,16th,st,94103.0,708000.0,-122.40130106,37.76681904,"{'type': 'Point', 'coordinates': [-122.401301063, 37.766819045]}",SUPERVISORIAL DISTRICT 6,6.0,SIX,Mission Bay,2025-01-19T03:37:00.000,2025-01-19T10:04:00.630,,,2010
52,Terminator - Genisys,2015,construction site in front of 260 stockton st. at post st.,construction site in front of 260 stockton st. at post st.,260 stockton st,107545.0,2545.0,449171.0,260 stockton st,260.0,stockton,st,94108.0,12197000.0,-122.40659754,37.78831114,"{'type': 'Point', 'coordinates': [-122.406597542, 37.788311142]}",SUPERVISORIAL DISTRICT 3,3.0,THREE,Financial District/South Beach,2025-01-19T03:38:00.000,2025-01-19T10:04:00.630,,,2010
53,Sonic the Hedgehog,2020,grid within montgomery st; davis st; pacific st; bush st,grid within montgomery st; davis st; pacific st; bush st,845 a montgomery st,213033.0,3033.0,473820.0,845 a montgomery st,845.0,montgomery,st,94133.0,9308000.0,-122.40390055,37.79691392,"{'type': 'Point', 'coordinates': [-122.403900552, 37.796913923]}",SUPERVISORIAL DISTRICT 3,3.0,THREE,Chinatown,2025-01-19T03:38:00.000,2025-01-19T10:04:00.630,A,,2020
54,Boys and Girls,2000,lombard street,lombard street,1 lombard st,74317.0,4317.0,276869.0,1 lombard st,1.0,lombard,st,94111.0,8431000.0,-122.40246809,37.80384663,"{'type': 'Point', 'coordinates': [-122.402468092, 37.803846629]}",SUPERVISORIAL DISTRICT 3,3.0,THREE,Financial District/South Beach,2025-01-19T03:36:00.000,2025-01-19T10:04:00.630,,,2000
55,Chance- Season 1 ep110,2016,"cliffhouse, 1090 point lobos ave.","cliffhouse, 1090 point lobos ave.",1090 point lobos ave,6073.0,1073.0,453145.0,1090 point lobos ave,1090.0,point lobos,ave,94121.0,10544000.0,-122.51396677,37.77858185,"{'type': 'Point', 'coordinates': [-122.513966766, 37.778581852]}",SUPERVISORIAL DISTRICT 1,1.0,ONE,Outer Richmond,2025-01-19T03:38:00.000,2025-01-19T10:04:00.630,,,2010
56,Nash Bridges,2021,jessie street between 6th street and mint,jessie street between 6th street and mint,471 a jessie st,164759.0,4759.0,483178.0,471 a jessie st,471.0,jessie,st,94103.0,7522000.0,-122.40828623,37.78193844,"{'type': 'Point', 'coordinates': [-122.408286227, 37.781938438]}",SUPERVISORIAL DISTRICT 6,6.0,SIX,South of Market,2025-01-19T03:38:00.000,2025-01-19T10:04:00.630,A,,2020
57,Sense8 - Season 2,2016,"billy goat hill, castro st. & 30th st.","billy goat hill, castro st. & 30th st.",309 b castro st,124660.0,4660.0,472994.0,309 b castro st,309.0,castro,st,94114.0,3788000.0,-122.43510483,37.7637751,"{'type': 'Point', 'coordinates': [-122.435104826, 37.7637751]}",SUPERVISORIAL DISTRICT 8,8.0,EIGHT,Castro/Upper Market,2025-01-19T03:38:00.000,2025-01-19T10:04:00.630,B,,2010
58,Tales of the City,2019,"city lights books, 261 columbus ave","city lights books, 261 columbus ave",261 columbus ave,107933.0,2933.0,279113.0,261 columbus ave,261.0,columbus,ave,94133.0,4291000.0,-122.4065793,37.79760056,"{'type': 'Point', 'coordinates': [-122.406579302, 37.797600559]}",SUPERVISORIAL DISTRICT 3,3.0,THREE,Chinatown,2025-01-19T03:36:00.000,2025-01-19T10:04:00.630,,,2010
59,Bullitt,1968,"candlestick park exit, highway 101","candlestick park exit, highway 101",131 a park st,24453.0,4453.0,483105.0,131 a park st,131.0,park,st,94110.0,10262000.0,-122.42279094,37.7369627,"{'type': 'Point', 'coordinates': [-122.422790942, 37.736962702]}",SUPERVISORIAL DISTRICT 9,9.0,NINE,Bernal Heights,2025-01-19T03:38:00.000,2025-01-19T10:04:00.630,A,,1960
60,Bicentennial Man,1999,"postcard row, alamo square, hayes valley","postcard row, alamo square, hayes valley",30 a valley st,124803.0,4803.0,503565.0,30 a valley st,30.0,valley,st,94110.0,13125000.0,-122.42301293,37.7449671,"{'type': 'Point', 'coordinates': [-122.423012928, 37.744967103]}",SUPERVISORIAL DISTRICT 8,8.0,EIGHT,Noe Valley,2025-01-19T03:40:00.000,2025-01-19T10:04:00.630,A,,1990
61,"Murder in the First, Season 3",2016,golden gate park,golden gate park,35 golden gate ave,139814.0,4814.0,504218.0,35 golden gate ave,35.0,golden gate,ave,94102.0,6259000.0,-122.41125013,37.78205104,"{'type': 'Point', 'coordinates': [-122.411250124, 37.782051037]}",SUPERVISORIAL DISTRICT 5,5.0,FIVE,Tenderloin,2025-01-19T03:40:00.000,2025-01-19T10:04:00.630,,,2010
62,Quitters,2015,geary from 22nd ave to arguello,geary from 22nd ave to arguello,122 arguello blvd,16322.0,1322.0,292188.0,122 arguello blvd,122.0,arguello,blvd,94118.0,2415000.0,-122.45900164,37.78811476,"{'type': 'Point', 'coordinates': [-122.459001643, 37.788114763]}",SUPERVISORIAL DISTRICT 2,2.0,TWO,Presidio Heights,2025-01-19T03:36:00.000,2025-01-19T10:04:00.630,,,2010
63,Petulia,1968,cala foods (california street and hyde),cala foods (california street and hyde),1373 a california st,29893.0,4893.0,424246.0,1373 a california st,1373.0,california,st,94109.0,3546000.0,-122.41679143,37.79074643,"{'type': 'Point', 'coordinates': [-122.416791433, 37.790746429]}",SUPERVISORIAL DISTRICT 3,3.0,THREE,Nob Hill,2025-01-19T03:37:00.000,2025-01-19T10:04:00.630,A,,1960
64,So I Married an Axe Murderer,1993,vesuvio café (255 columbus avenue),vesuvio café (255 columbus avenue),255 columbus ave,104991.0,4991.0,497338.0,255 columbus ave,255.0,columbus,ave,94133.0,4290000.0,-122.40611093,37.79733298,"{'type': 'Point', 'coordinates': [-122.40611093, 37.797332984]}",SUPERVISORIAL DISTRICT 3,3.0,THREE,Chinatown,2025-01-19T03:39:00.000,2025-01-19T10:04:00.630,,,1990
65,Invasion of the Body Snatchers,1978,chinatown,chinatown,1 ina ct,74271.0,4271.0,388980.0,1 ina ct,1.0,ina,ct,94112.0,7182000.0,-122.42432421,37.72377167,"{'type': 'Point', 'coordinates': [-122.424324209, 37.72377167]}",SUPERVISORIAL DISTRICT 11,11.0,ELEVEN,Excelsior,2025-01-19T03:37:00.000,2025-01-19T10:04:00.630,,,1970
66,Ant-Man and the Wasp,2018,saint louis alley at jackson,saint louis alley at jackson,26 saint louis aly,111420.0,1420.0,279774.0,26 saint louis aly,26.0,saint louis,aly,94133.0,11310000.0,-122.40698639,37.79575164,"{'type': 'Point', 'coordinates': [-122.406986387, 37.795751636]}",SUPERVISORIAL DISTRICT 3,3.0,THREE,Chinatown,2025-01-19T03:36:00.000,2025-01-19T10:04:00.630,,,2010
67,Sweet November,2001,marquee lofts (1000 van ness avenue at alice b. toklas place),marquee lofts (1000 van ness avenue at alice b. toklas place),100 a van ness ave,567.0,567.0,489813.0,100 a van ness ave,100.0,van ness,ave,94102.0,13144201.0,-122.41928801,37.77659043,"{'type': 'Point', 'coordinates': [-122.419288007, 37.77659043]}",SUPERVISORIAL DISTRICT 6,6.0,SIX,Tenderloin,2025-01-19T03:38:00.000,2025-01-19T10:04:00.630,A,,2000
68,Need For Speed,2014,powell st. from geary to sacramento,powell st. from geary to sacramento,1359 a sacramento st,28398.0,3398.0,446858.0,1359 a sacramento st,1359.0,sacramento,st,94109.0,11242000.0,-122.41525105,37.79205318,"{'type': 'Point', 'coordinates': [-122.415251054, 37.792053184]}",SUPERVISORIAL DISTRICT 3,3.0,THREE,Nob Hill,2025-01-19T03:38:00.000,2025-01-19T10:04:00.630,A,,2010
69,Doctor Dolittle,1998,larkin & hyde streets,larkin & hyde streets,0 larkin st,13.0,13.0,280109.0,0 larkin st,0.0,larkin,st,94109.0,8143000.0,-122.41902864,37.79285917,"{'type': 'Point', 'coordinates': [-122.419028644, 37.792859175]}",SUPERVISORIAL DISTRICT 3,3.0,THREE,Russian Hill,2025-01-19T03:36:00.000,2025-01-19T10:04:00.630,,,1990
70,The OA Part II,2019,"red's java house (pier 30-32, the embarcadero)","red's java house (pier 30-32, the embarcadero)",30 the embarcadero,125237.0,237.0,440219.0,30 the embarcadero,30.0,embarcadero,,94105.0,12553103.0,-122.39385371,37.79419169,"{'type': 'Point', 'coordinates': [-122.393853705, 37.794191691]}",SUPERVISORIAL DISTRICT 3,3.0,THREE,Financial District/South Beach,2025-01-19T03:38:00.000,2025-01-19T10:04:00.630,,,2010
71,Alive,2020,embarcadero near pier 14,embarcadero near pier 14,143 the embarcadero,35734.0,734.0,458314.0,143 the embarcadero,143.0,embarcadero,,94111.0,12553103.0,-122.39606153,37.79615551,"{'type': 'Point', 'coordinates': [-122.396061533, 37.796155507]}",SUPERVISORIAL DISTRICT 3,3.0,THREE,Financial District/South Beach,2025-01-19T03:38:00.000,2025-01-19T10:04:00.630,,,2020
72,"Murder in the First, Season 2",2015,83 watchman way,83 watchman way,83 watchman way,212625.0,2625.0,451069.0,83 watchman way,83.0,watchman,way,94107.0,13453000.0,-122.39514415,37.75582048,"{'type': 'Point', 'coordinates': [-122.395144145, 37.75582048]}",SUPERVISORIAL DISTRICT 10,10.0,TEN,Potrero Hill,2025-01-19T03:38:00.000,2025-01-19T10:04:00.630,,,2010
73,Magnum Force,1973,broadway tunnel (russian hill),broadway tunnel (russian hill),1 russian hill pl,74454.0,4454.0,278192.0,1 russian hill pl,1.0,russian hill,pl,94133.0,11201000.0,-122.41521114,37.79792138,"{'type': 'Point', 'coordinates': [-122.415211137, 37.797921383]}",SUPERVISORIAL DISTRICT 3,3.0,THREE,Nob Hill,2025-01-19T03:36:00.000,2025-01-19T10:04:00.630,,,1970
74,The Maltese Falcon,1941,golden gate bridge,golden gate bridge,35 golden gate ave,139814.0,4814.0,504218.0,35 golden gate ave,35.0,golden gate,ave,94102.0,6259000.0,-122.41125013,37.78205104,"{'type': 'Point', 'coordinates': [-122.411250124, 37.782051037]}",SUPERVISORIAL DISTRICT 5,5.0,FIVE,Tenderloin,2025-01-19T03:40:00.000,2025-01-19T10:04:00.630,,,1940
75,180,2011,polk & larkin streets,polk & larkin streets,0 larkin st,13.0,13.0,280109.0,0 larkin st,0.0,larkin,st,94109.0,8143000.0,-122.41902864,37.79285917,"{'type': 'Point', 'coordinates': [-122.419028644, 37.792859175]}",SUPERVISORIAL DISTRICT 3,3.0,THREE,Russian Hill,2025-01-19T03:36:00.000,2025-01-19T10:04:00.630,,,2010
76,The Dead Pool,1988,"mirant energy, llc (1301 illinois street, the dogpatch)","mirant energy, llc (1301 illinois street, the dogpatch)",1301 a illinois st,22908.0,2908.0,485551.0,1301 a illinois st,1301.0,illinois,st,94107.0,7172000.0,-122.38647975,37.75511243,"{'type': 'Point', 'coordinates': [-122.386479747, 37.75511243]}",SUPERVISORIAL DISTRICT 10,10.0,TEN,Potrero Hill,2025-01-19T03:38:00.000,2025-01-19T10:04:00.630,A,,1980
77,GirlBoss,2017,various haight st. vintage shops,various haight st. vintage shops,1 haight st,74244.0,4244.0,503968.0,1 haight st,1.0,haight,st,94102.0,6603000.0,-122.42244717,37.77295563,"{'type': 'Point', 'coordinates': [-122.422447164, 37.772955628]}",SUPERVISORIAL DISTRICT 6,6.0,SIX,Hayes Valley,2025-01-19T03:40:00.000,2025-01-19T10:04:00.630,,,2010
78,Women is Losers,2020,laguna honda hospital - 375 laguna honda blvd.,laguna honda hospital - 375 laguna honda blvd.,375 laguna honda blvd,144135.0,4135.0,449510.0,375 laguna honda blvd,375.0,laguna honda,blvd,94131.0,7990101.0,-122.45697402,37.74772932,"{'type': 'Point', 'coordinates': [-122.456974017, 37.747729326]}",SUPERVISORIAL DISTRICT 7,7.0,SEVEN,Twin Peaks,2025-01-19T03:38:00.000,2025-01-19T10:04:00.630,,,2020
79,Blue Jasmine,2013,5546 geary ave,5546 geary ave,5546 geary blvd,177735.0,2735.0,476601.0,5546 geary blvd,5546.0,geary,blvd,94121.0,6076201.0,-122.47909755,37.78054226,"{'type': 'Point', 'coordinates': [-122.479097546, 37.780542264]}",SUPERVISORIAL DISTRICT 1,1.0,ONE,Outer Richmond,2025-01-19T03:38:00.000,2025-01-19T10:04:00.630,,,2010
80,Guess Who's Coming to Dinner,1967,san francisco international airport,san francisco international airport,370 a francisco st,142865.0,2865.0,276017.0,370 a francisco st,370.0,francisco,st,94133.0,5760000.0,-122.41133108,37.80523289,"{'type': 'Point', 'coordinates': [-122.411331083, 37.805232888]}",SUPERVISORIAL DISTRICT 3,3.0,THREE,North Beach,2025-01-19T03:36:00.000,2025-01-19T10:04:00.630,A,,1960
81,The Nightmare Before Christmas,1993,Empty,Empty,Empty,,,,,,,,,,,,,,,,nan,,,,,1990
82,When We Rise,2017,"eureka arts center, 4400 20th st.","eureka arts center, 4400 20th st.",140 a eureka st,32548.0,2548.0,441308.0,140 a eureka st,140.0,eureka,st,94114.0,5318000.0,-122.43851587,37.76000286,"{'type': 'Point', 'coordinates': [-122.438515867, 37.760002857]}",SUPERVISORIAL DISTRICT 8,8.0,EIGHT,Castro/Upper Market,2025-01-19T03:38:00.000,2025-01-19T10:04:00.630,A,,2010
83,Under the Tuscan Sun,2003,mecca restaurant (2029 market street),mecca restaurant (2029 market street),2029 market st,76379.0,1379.0,490256.0,2029 market st,2029.0,market,st,94114.0,8762102.0,-122.42756396,37.76833304,"{'type': 'Point', 'coordinates': [-122.427563955, 37.768333042]}",SUPERVISORIAL DISTRICT 8,8.0,EIGHT,Castro/Upper Market,2025-01-19T03:38:00.000,2025-01-19T10:04:00.630,,,2000
84,The Diary of a Teenage Girl,2015,304 lily st.,304 lily st.,304 lily st,123594.0,3594.0,289267.0,304 lily st,304.0,lily,st,94102.0,8337000.0,-122.42608942,37.77415328,"{'type': 'Point', 'coordinates': [-122.426089416, 37.774153282]}",SUPERVISORIAL DISTRICT 5,5.0,FIVE,Hayes Valley,2025-01-19T03:36:00.000,2025-01-19T10:04:00.630,,,2010
85,Sense8 - Season 2,2016,67-69 deming st.,67-69 deming st.,66 deming st,193317.0,3317.0,467598.0,66 deming st,66.0,deming,st,94114.0,4713000.0,-122.44577931,37.76065567,"{'type': 'Point', 'coordinates': [-122.445779309, 37.760655672]}",SUPERVISORIAL DISTRICT 8,8.0,EIGHT,Castro/Upper Market,2025-01-19T03:38:00.000,2025-01-19T10:04:00.630,,,2010
86,"Play it Again, Sam",1972,balboa at 22nd avenue,balboa at 22nd avenue,480 b 22nd ave,166181.0,1181.0,476959.0,480 b 22nd ave,480.0,22nd,ave,94121.0,1135000.0,-122.48108163,37.77873217,"{'type': 'Point', 'coordinates': [-122.481081629, 37.778732172]}",SUPERVISORIAL DISTRICT 1,1.0,ONE,Outer Richmond,2025-01-19T03:38:00.000,2025-01-19T10:04:00.630,B,,1970
87,Venom,2018,embarcadero btwn folsom and bryant,embarcadero btwn folsom and bryant,0 the embarcadero,21.0,21.0,481023.0,0 the embarcadero,0.0,embarcadero,,94105.0,12549201.0,-122.38636372,37.78812404,"{'type': 'Point', 'coordinates': [-122.386363719, 37.78812404]}",SUPERVISORIAL DISTRICT 6,6.0,SIX,Financial District/South Beach,2025-01-19T03:38:00.000,2025-01-19T10:04:00.630,,,2010
88,A View to a Kill,1985,city hall,city hall,Empty,,,,,,,,,,,,,,,,nan,,,,,1980
89,Chance- Season 1 ep103,2016,laguna honda hospital,laguna honda hospital,250 laguna honda blvd,102482.0,2482.0,346988.0,250 laguna honda blvd,250.0,laguna honda,blvd,94116.0,7989201.0,-122.4610754,37.74986305,"{'type': 'Point', 'coordinates': [-122.4610754, 37.749863047]}",SUPERVISORIAL DISTRICT 7,7.0,SEVEN,West of Twin Peaks,2025-01-19T03:37:00.000,2025-01-19T10:04:00.630,,,2010
90,Freebie and the Bean,1974,hyatt regency hotel (5 embarcadero center),hyatt regency hotel (5 embarcadero center),5 the embarcadero,183917.0,3917.0,464266.0,5 the embarcadero,5.0,embarcadero,,94111.0,12553103.0,-122.39581105,37.79433102,"{'type': 'Point', 'coordinates': [-122.395811054, 37.794331018]}",SUPERVISORIAL DISTRICT 3,3.0,THREE,Financial District/South Beach,2025-01-19T03:38:00.000,2025-01-19T10:04:00.630,,,1970
91,After the Thin Man,1936,coit tower,coit tower,Empty,,,,,,,,,,,,,,,,nan,,,,,1930
92,"Smile Again, Jenny Lee",2015,gaspare's pizza house (5546 geary blvd.),gaspare's pizza house (5546 geary blvd.),5546 geary blvd,177735.0,2735.0,476601.0,5546 geary blvd,5546.0,geary,blvd,94121.0,6076201.0,-122.47909755,37.78054226,"{'type': 'Point', 'coordinates': [-122.479097546, 37.780542264]}",SUPERVISORIAL DISTRICT 1,1.0,ONE,Outer Richmond,2025-01-19T03:38:00.000,2025-01-19T10:04:00.630,,,2010
93,Edtv,1999,1138 filbert street,1138 filbert street,1138 filbert st,9558.0,4558.0,277206.0,1138 filbert st,1138.0,filbert,st,94109.0,5511000.0,-122.41827908,37.80056614,"{'type': 'Point', 'coordinates': [-122.418279077, 37.800566144]}",SUPERVISORIAL DISTRICT 3,3.0,THREE,Russian Hill,2025-01-19T03:36:00.000,2025-01-19T10:04:00.630,,,1990
94,A Taiwanese Tale of Two Cities,2018,"castro theatre, 429 castro st.","castro theatre, 429 castro st.",542 a castro st,175846.0,846.0,493231.0,542 a castro st,542.0,castro,st,94114.0,3791000.0,-122.43544261,37.76019656,"{'type': 'Point', 'coordinates': [-122.435442605, 37.760196559]}",SUPERVISORIAL DISTRICT 8,8.0,EIGHT,Castro/Upper Market,2025-01-19T03:39:00.000,2025-01-19T10:04:00.630,A,,2010
95,Vertigo,1958,conservatory of flowers (golden gate park),conservatory of flowers (golden gate park),1521 a golden gate ave,42684.0,2684.0,472327.0,1521 a golden gate ave,1521.0,golden gate,ave,94115.0,6273000.0,-122.43627646,37.77885411,"{'type': 'Point', 'coordinates': [-122.436276464, 37.778854112]}",SUPERVISORIAL DISTRICT 5,5.0,FIVE,Western Addition,2025-01-19T03:38:00.000,2025-01-19T10:04:00.630,A,,1950
96,GirlBoss,2017,filbert between leavenworth and hyde,filbert between leavenworth and hyde,921 e leavenworth st,219104.0,4104.0,458681.0,921 e leavenworth st,921.0,leavenworth,st,94109.0,8247000.0,-122.41570126,37.78960774,"{'type': 'Point', 'coordinates': [-122.415701254, 37.789607746]}",SUPERVISORIAL DISTRICT 3,3.0,THREE,Nob Hill,2025-01-19T03:38:00.000,2025-01-19T10:04:00.630,E,,2010
97,Looking,2014,doc's clock,doc's clock,Empty,,,,,,,,,,,,,,,,nan,,,,,2010
98,The Dead Pool,1988,portsmouth square (chinatown),portsmouth square (chinatown),1 ina ct,74271.0,4271.0,388980.0,1 ina ct,1.0,ina,ct,94112.0,7182000.0,-122.42432421,37.72377167,"{'type': 'Point', 'coordinates': [-122.424324209, 37.72377167]}",SUPERVISORIAL DISTRICT 11,11.0,ELEVEN,Excelsior,2025-01-19T03:37:00.000,2025-01-19T10:04:00.630,,,1980
99,The Matrix Resurrections,2021,"joe & the juice, 235 montgomery","joe & the juice, 235 montgomery",235 montgomery st,94820.0,4820.0,280829.0,235 montgomery st,235.0,montgomery,st,94104.0,9299000.0,-122.40262636,37.79144664,"{'type': 'Point', 'coordinates': [-122.402626357, 37.791446641]}",SUPERVISORIAL DISTRICT 3,3.0,THREE,Financial District/South Beach,2025-01-19T03:36:00.000,2025-01-19T10:04:00.630,,,2020
100,Shang-Chi and the Legend of the Ten Rings,2021,"bush between hyde and kearny, sutter between hyde and kearny","bush between hyde and kearny, sutter between hyde and kearny",312 a kearny st,126067.0,1067.0,503923.0,312 a kearny st,312.0,kearny,st,94108.0,7753000.0,-122.40384927,37.79098902,"{'type': 'Point', 'coordinates': [-122.403849272, 37.790989016]}",SUPERVISORIAL DISTRICT 3,3.0,THREE,Financial District/South Beach,2025-01-19T03:40:00.000,2025-01-19T10:04:00.630,A,,2020
101,Chance- Season 1 ep103,2016,350 santa ana ave.,350 santa ana ave.,350 santa ana ave,137565.0,2565.0,356904.0,350 santa ana ave,350.0,santa ana,ave,94127.0,11566000.0,-122.46829021,37.73061614,"{'type': 'Point', 'coordinates': [-122.46829021, 37.730616138]}",SUPERVISORIAL DISTRICT 7,7.0,SEVEN,West of Twin Peaks,2025-01-19T03:37:00.000,2025-01-19T10:04:00.630,,,2010
102,"Murder in the First, Season 2",2015,embarcadero street at washington street,embarcadero street at washington street,738 a washington st,201487.0,1487.0,476781.0,738 a washington st,738.0,washington,st,94108.0,13411000.0,-122.4057807,37.79548406,"{'type': 'Point', 'coordinates': [-122.405780694, 37.79548406]}",SUPERVISORIAL DISTRICT 3,3.0,THREE,Chinatown,2025-01-19T03:38:00.000,2025-01-19T10:04:00.630,A,,2010
103,"Murder in the First, Season 2",2015,treasure island,treasure island,39 treasure island rd,149268.0,4268.0,505515.0,39 treasure island rd,39.0,treasure island,rd,94130.0,14305000.0,-122.37092258,37.81721955,"{'type': 'Point', 'coordinates': [-122.370922579, 37.817219555]}",SUPERVISORIAL DISTRICT 6,6.0,SIX,Treasure Island,2025-01-19T03:40:00.000,2025-01-19T10:04:00.630,,,2010
104,Terminator - Genisys,2015,1 market st. landmark building,1 market st. landmark building,1108 b market st,7259.0,2259.0,470606.0,1108 b market st,1108.0,market,st,94102.0,8750203.0,-122.41246993,37.78090053,"{'type': 'Point', 'coordinates': [-122.412469932, 37.780900531]}",SUPERVISORIAL DISTRICT 5,5.0,FIVE,Tenderloin,2025-01-19T03:38:00.000,2025-01-19T10:04:00.630,B,,2010
105,Chance - Season 1 ep105,2016,"the drew school, 2901 california","the drew school, 2901 california",2901 california st,118679.0,3679.0,477306.0,2901 california st,2901.0,california,st,94115.0,3563000.0,-122.4423196,37.78764227,"{'type': 'Point', 'coordinates': [-122.442319596, 37.78764227]}",SUPERVISORIAL DISTRICT 2,2.0,TWO,Pacific Heights,2025-01-19T03:38:00.000,2025-01-19T10:04:00.630,,,2010
106,Looking Season 2 ep 208,2015,950 mason street,950 mason street,950 mason st,221075.0,1075.0,280508.0,950 mason st,950.0,mason,st,94108.0,8812000.0,-122.41067191,37.79217524,"{'type': 'Point', 'coordinates': [-122.410671906, 37.792175242]}",SUPERVISORIAL DISTRICT 3,3.0,THREE,Nob Hill,2025-01-19T03:36:00.000,2025-01-19T10:04:00.630,,,2010
107,Vertigo,1958,gough & eddy streets (western addition),gough & eddy streets (western addition),332 a gough st,132244.0,2244.0,475593.0,332 a gough st,332.0,gough,st,94102.0,6318000.0,-122.42266943,37.77665949,"{'type': 'Point', 'coordinates': [-122.422669431, 37.776659486]}",SUPERVISORIAL DISTRICT 5,5.0,FIVE,Hayes Valley,2025-01-19T03:38:00.000,2025-01-19T10:04:00.630,A,,1950
108,Woman on the Run,1950,1801 laguna at bush,1801 laguna at bush,1801 laguna st,63066.0,3066.0,287279.0,1801 laguna st,1801.0,laguna,st,94115.0,7967000.0,-122.42881761,37.78774361,"{'type': 'Point', 'coordinates': [-122.428817606, 37.787743609]}",SUPERVISORIAL DISTRICT 5,5.0,FIVE,Pacific Heights,2025-01-19T03:36:00.000,2025-01-19T10:04:00.630,,,1950
109,The Matrix Resurrections,2021,155 california,155 california,1055 california st,4075.0,4075.0,280718.0,1055 california st,1055.0,california,st,94108.0,3542000.0,-122.41168984,37.79143105,"{'type': 'Point', 'coordinates': [-122.411689838, 37.791431051]}",SUPERVISORIAL DISTRICT 3,3.0,THREE,Nob Hill,2025-01-19T03:36:00.000,2025-01-19T10:04:00.630,,,2020
110,Guess Who's Coming to Dinner,1967,mel's drive-in (corner south van ness & mission st.),mel's drive-in (corner south van ness & mission st.),1 south van ness ave,74495.0,4495.0,357746.0,1 south van ness ave,1.0,south van ness,ave,94103.0,12015101.0,-122.41895682,37.77494444,"{'type': 'Point', 'coordinates': [-122.418956819, 37.774944445]}",SUPERVISORIAL DISTRICT 6,6.0,SIX,Mission,2025-01-19T03:37:00.000,2025-01-19T10:04:00.630,,,1960
111,Star Trek VI: The Undiscovered Country,1991,golden gate bridge,golden gate bridge,35 golden gate ave,139814.0,4814.0,504218.0,35 golden gate ave,35.0,golden gate,ave,94102.0,6259000.0,-122.41125013,37.78205104,"{'type': 'Point', 'coordinates': [-122.411250124, 37.782051037]}",SUPERVISORIAL DISTRICT 5,5.0,FIVE,Tenderloin,2025-01-19T03:40:00.000,2025-01-19T10:04:00.630,,,1990
112,Chance- Season 1 ep104,2016,11 san jacinto ave.,11 san jacinto ave.,11 san jacinto way,13601.0,3601.0,353454.0,11 san jacinto way,11.0,san jacinto,way,94127.0,11417000.0,-122.4631511,37.73527324,"{'type': 'Point', 'coordinates': [-122.463151095, 37.735273239]}",SUPERVISORIAL DISTRICT 7,7.0,SEVEN,West of Twin Peaks,2025-01-19T03:37:00.000,2025-01-19T10:04:00.630,,,2010
113,Blue Jasmine,2013,aub zam zam bar,aub zam zam bar,Empty,,,,,,,,,,,,,,,,nan,,,,,2010
114,Chance Season 2,2017,duboce between buena vista east and alpine st,duboce between buena vista east and alpine st,1 a buena vista ave east,74032.0,4032.0,489102.0,1 a buena vista ave east,1.0,buena vista,ave,94117.0,3362000.0,-122.43992169,37.77077078,"{'type': 'Point', 'coordinates': [-122.439921693, 37.770770781]}",SUPERVISORIAL DISTRICT 5,5.0,FIVE,Haight Ashbury,2025-01-19T03:38:00.000,2025-01-19T10:04:00.630,A,,2010
115,Venom: Let There Be Carnage,2021,palace of fine arts,palace of fine arts,Empty,,,,,,,,,,,,,,,,nan,,,,,2020
116,The Dead Pool,1988,"kgo-tv abc7 tv studios (900 front street, waterfront historic district)","kgo-tv abc7 tv studios (900 front street, waterfront historic district)",900 front st,217573.0,2573.0,448182.0,900 front st,900.0,front,st,94111.0,5875000.0,-122.39992542,37.80003098,"{'type': 'Point', 'coordinates': [-122.399925416, 37.800030983]}",SUPERVISORIAL DISTRICT 3,3.0,THREE,Financial District/South Beach,2025-01-19T03:38:00.000,2025-01-19T10:04:00.630,,,1980
117,Goliath- Season 4,2021,fort point (golden gate national recreation area),fort point (golden gate national recreation area),1521 b golden gate ave,42689.0,2689.0,472328.0,1521 b golden gate ave,1521.0,golden gate,ave,94115.0,6273000.0,-122.43627915,37.77885305,"{'type': 'Point', 'coordinates': [-122.436279145, 37.778853053]}",SUPERVISORIAL DISTRICT 5,5.0,FIVE,Western Addition,2025-01-19T03:38:00.000,2025-01-19T10:04:00.630,B,,2020
118,Patch Adams,1998,presidio (golden gate national recreation area),presidio (golden gate national recreation area),35 golden gate ave,139814.0,4814.0,504218.0,35 golden gate ave,35.0,golden gate,ave,94102.0,6259000.0,-122.41125013,37.78205104,"{'type': 'Point', 'coordinates': [-122.411250124, 37.782051037]}",SUPERVISORIAL DISTRICT 5,5.0,FIVE,Tenderloin,2025-01-19T03:40:00.000,2025-01-19T10:04:00.630,,,1990
119,"Murder in the First, Season 2",2015,372/374 pennsylvania avenue,372/374 pennsylvania avenue,324 pennsylvania ave,129820.0,4820.0,367683.0,324 pennsylvania ave,324.0,pennsylvania,ave,94107.0,10333000.0,-122.39388795,37.76219699,"{'type': 'Point', 'coordinates': [-122.393887947, 37.762196991]}",SUPERVISORIAL DISTRICT 10,10.0,TEN,Potrero Hill,2025-01-19T03:37:00.000,2025-01-19T10:04:00.630,,,2010
120,Blue Jasmine,2013,200 post st.,200 post st.,200 post st,75147.0,147.0,459418.0,200 post st,200.0,post,st,94108.0,10627000.0,-122.40551265,37.78893226,"{'type': 'Point', 'coordinates': [-122.405512653, 37.788932259]}",SUPERVISORIAL DISTRICT 3,3.0,THREE,Financial District/South Beach,2025-01-19T03:38:00.000,2025-01-19T10:04:00.630,,,2010
121,Venom,2018,potrero hill: rhode island btwn 15th and 16th,potrero hill: rhode island btwn 15th and 16th,1095 a rhode island st,6140.0,1140.0,504998.0,1095 a rhode island st,1095.0,rhode island,st,94107.0,11002000.0,-122.40140891,37.75591117,"{'type': 'Point', 'coordinates': [-122.401408906, 37.755911174]}",SUPERVISORIAL DISTRICT 10,10.0,TEN,Potrero Hill,2025-01-19T03:40:00.000,2025-01-19T10:04:00.630,A,,2010
122,Shit and Champagne,2020,1090 eddy st,1090 eddy st,1090 eddy st,6054.0,1054.0,288051.0,1090 eddy st,1090.0,eddy,st,94109.0,5068000.0,-122.42556659,37.7825769,"{'type': 'Point', 'coordinates': [-122.42556659, 37.782576901]}",SUPERVISORIAL DISTRICT 2,2.0,TWO,Western Addition,2025-01-19T03:36:00.000,2025-01-19T10:04:00.630,,,2020
123,The Doors,1991,Empty,Empty,Empty,,,,,,,,,,,,,,,,nan,,,,,1990
124,Time After Time,1979,california academy of sciences (golden gate park),california academy of sciences (golden gate park),2863 d california st,117568.0,2568.0,474254.0,2863 d california st,2863.0,california,st,94115.0,3562000.0,-122.44153603,37.78776359,"{'type': 'Point', 'coordinates': [-122.441536033, 37.787763593]}",SUPERVISORIAL DISTRICT 2,2.0,TWO,Pacific Heights,2025-01-19T03:38:00.000,2025-01-19T10:04:00.630,D,,1970
125,Looking Season 2 ep 210,2015,"vega coffee, 1245 folsom street","vega coffee, 1245 folsom street",1245 folsom st,17963.0,2963.0,366035.0,1245 folsom st,1245.0,folsom,st,94103.0,5678000.0,-122.41048159,37.77418219,"{'type': 'Point', 'coordinates': [-122.410481589, 37.77418219]}",SUPERVISORIAL DISTRICT 6,6.0,SIX,South of Market,2025-01-19T03:37:00.000,2025-01-19T10:04:00.630,,,2010
126,Shit and Champagne,2020,gerke alley at grant,gerke alley at grant,1 grant ave,74237.0,4237.0,281519.0,1 grant ave,1.0,grant,ave,94108.0,6381000.0,-122.40517625,37.78698775,"{'type': 'Point', 'coordinates': [-122.40517625, 37.78698775]}",SUPERVISORIAL DISTRICT 3,3.0,THREE,Financial District/South Beach,2025-01-19T03:36:00.000,2025-01-19T10:04:00.630,,,2020
127,George of the Jungle,1997,the tamalpais building (1201 greenwich street at hyde),the tamalpais building (1201 greenwich street at hyde),1201 greenwich st,13862.0,3862.0,277218.0,1201 greenwich st,1201.0,greenwich,st,94109.0,6507001.0,-122.41967163,37.80088229,"{'type': 'Point', 'coordinates': [-122.419671626, 37.800882295]}",SUPERVISORIAL DISTRICT 3,3.0,THREE,Russian Hill,2025-01-19T03:36:00.000,2025-01-19T10:04:00.630,,,1990
128,Blue Jasmine,2013,real guitars,real guitars,Empty,,,,,,,,,,,,,,,,nan,,,,,2010
129,Surface,2022,powell street at geary,powell street at geary,114 a powell st,10210.0,210.0,456677.0,114 a powell st,114.0,powell,st,94102.0,10676000.0,-122.4077859,37.78586498,"{'type': 'Point', 'coordinates': [-122.407785894, 37.785864978]}",SUPERVISORIAL DISTRICT 3,3.0,THREE,Financial District/South Beach,2025-01-19T03:38:00.000,2025-01-19T10:04:00.630,A,,2020
130,The Rock,1996,"fairmont hotel (950 mason street, nob hill)","fairmont hotel (950 mason street, nob hill)",950 mason st,221075.0,1075.0,280508.0,950 mason st,950.0,mason,st,94108.0,8812000.0,-122.41067191,37.79217524,"{'type': 'Point', 'coordinates': [-122.410671906, 37.792175242]}",SUPERVISORIAL DISTRICT 3,3.0,THREE,Nob Hill,2025-01-19T03:36:00.000,2025-01-19T10:04:00.630,,,1990
131,Godzilla,2014,eddy & taylor st.,eddy & taylor st.,1 taylor st,74521.0,4521.0,281947.0,1 taylor st,1.0,taylor,st,94102.0,12425000.0,-122.41079829,37.7824352,"{'type': 'Point', 'coordinates': [-122.410798291, 37.782435201]}",SUPERVISORIAL DISTRICT 5,5.0,FIVE,Tenderloin,2025-01-19T03:36:00.000,2025-01-19T10:04:00.630,,,2010
132,The OA Part II,2019,harrison st to beale st to bryant st,harrison st to beale st to bryant st,978 a harrison st,222621.0,2621.0,477443.0,978 a harrison st,978.0,harrison,st,94107.0,6723000.0,-122.4037374,37.77786513,"{'type': 'Point', 'coordinates': [-122.403737397, 37.777865132]}",SUPERVISORIAL DISTRICT 6,6.0,SIX,South of Market,2025-01-19T03:38:00.000,2025-01-19T10:04:00.630,A,,2010
133,A Taiwanese Tale of Two Cities,2018,pier 7,pier 7,Empty,,,,,,,,,,,,,,,,nan,,,,,2010
134,It Came From Beneath the Sea,1955,chrissy field,chrissy field,Empty,,,,,,,,,,,,,,,,nan,,,,,1950
135,The Lineup,1958,war memorial opera house (401 van ness avenue),war memorial opera house (401 van ness avenue),401 van ness ave,150062.0,62.0,454214.0,401 van ness ave,401.0,van ness,ave,94102.0,13146101.0,-122.42051342,37.77946222,"{'type': 'Point', 'coordinates': [-122.42051342, 37.779462224]}",SUPERVISORIAL DISTRICT 5,5.0,FIVE,Hayes Valley,2025-01-19T03:38:00.000,2025-01-19T10:04:00.630,,,1950
136,My Big Fat Chinese Christmas,2022,grant avenue between sacramento and california,grant avenue between sacramento and california,1373 a california st,29893.0,4893.0,424246.0,1373 a california st,1373.0,california,st,94109.0,3546000.0,-122.41679143,37.79074643,"{'type': 'Point', 'coordinates': [-122.416791433, 37.790746429]}",SUPERVISORIAL DISTRICT 3,3.0,THREE,Nob Hill,2025-01-19T03:37:00.000,2025-01-19T10:04:00.630,A,,2020
137,Age of Adaline,2015,california @ montgomery,california @ montgomery,1 california st,74109.0,4109.0,280800.0,1 california st,1.0,california,st,94111.0,3524000.0,-122.39704304,37.79321375,"{'type': 'Point', 'coordinates': [-122.397043036, 37.793213746]}",SUPERVISORIAL DISTRICT 3,3.0,THREE,Financial District/South Beach,2025-01-19T03:36:00.000,2025-01-19T10:04:00.630,,,2010
138,"Smile Again, Jenny Lee",2015,hyatt hotel (555 north point st.),hyatt hotel (555 north point st.),555 north point st,178000.0,3000.0,275960.0,555 north point st,555.0,north point,st,94133.0,9691000.0,-122.41594525,37.80588536,"{'type': 'Point', 'coordinates': [-122.415945247, 37.805885364]}",SUPERVISORIAL DISTRICT 3,3.0,THREE,North Beach,2025-01-19T03:36:00.000,2025-01-19T10:04:00.630,,,2010
139,Shit and Champagne,2020,1814 32nd ave,1814 32nd ave,1814 32nd ave,63771.0,3771.0,327561.0,1814 32nd ave,1814.0,32nd,ave,94122.0,1713000.0,-122.49013462,37.75328966,"{'type': 'Point', 'coordinates': [-122.490134622, 37.75328966]}",SUPERVISORIAL DISTRICT 4,4.0,FOUR,Sunset/Parkside,2025-01-19T03:36:00.000,2025-01-19T10:04:00.630,,,2020
140,Nash Bridges,2021,"far east café, 631 grant avenue","far east café, 631 grant avenue",631 grant ave,188468.0,3468.0,280478.0,631 grant ave,631.0,grant,ave,94108.0,6392000.0,-122.40636741,37.79298986,"{'type': 'Point', 'coordinates': [-122.40636741, 37.79298986]}",SUPERVISORIAL DISTRICT 3,3.0,THREE,Chinatown,2025-01-19T03:36:00.000,2025-01-19T10:04:00.630,,,2020
141,Sister Act 2: Back in the Habit,1993,ccsf alemany campus,ccsf alemany campus,31 a camp st,127910.0,2910.0,422414.0,31 a camp st,31.0,camp,st,94110.0,3636000.0,-122.42332324,37.76376366,"{'type': 'Point', 'coordinates': [-122.423323242, 37.763763658]}",SUPERVISORIAL DISTRICT 9,9.0,NINE,Mission,2025-01-19T03:37:00.000,2025-01-19T10:04:00.630,A,,1990
142,Bullitt,1968,2700 vallejo street (pacific heights),2700 vallejo street (pacific heights),2700 vallejo st,111572.0,1572.0,291364.0,2700 vallejo st,2700.0,vallejo,st,94123.0,13121000.0,-122.44202658,37.79463248,"{'type': 'Point', 'coordinates': [-122.442026577, 37.79463248]}",SUPERVISORIAL DISTRICT 2,2.0,TWO,Pacific Heights,2025-01-19T03:36:00.000,2025-01-19T10:04:00.630,,,1960
143,Americana,2015,john shelley drive john mclaren park,john shelley drive john mclaren park,1 mclaren ave,74356.0,4356.0,300399.0,1 mclaren ave,1.0,mclaren,ave,94121.0,8931000.0,-122.48863868,37.78609938,"{'type': 'Point', 'coordinates': [-122.488638683, 37.786099379]}",SUPERVISORIAL DISTRICT 1,1.0,ONE,Seacliff,2025-01-19T03:36:00.000,2025-01-19T10:04:00.630,,,2010
144,Time After Time,1979,lombard & fillmore streets (marina district),lombard & fillmore streets (marina district),1540 e lombard st,44342.0,4342.0,468229.0,1540 e lombard st,1540.0,lombard,st,94123.0,8454201.0,-122.42701934,37.80132182,"{'type': 'Point', 'coordinates': [-122.427019344, 37.801321823]}",SUPERVISORIAL DISTRICT 2,2.0,TWO,Marina,2025-01-19T03:38:00.000,2025-01-19T10:04:00.630,E,,1970
145,When We Rise,2017,city hall,city hall,Empty,,,,,,,,,,,,,,,,nan,,,,,2010
146,Big Trouble in Little China,1986,Empty,Empty,Empty,,,,,,,,,,,,,,,,nan,,,,,1980
147,So I Married an Axe Murderer,1993,rocco's corner (columbus street),rocco's corner (columbus street),4 columbus ave,168376.0,3376.0,279801.0,4 columbus ave,4.0,columbus,ave,94111.0,4286000.0,-122.40364725,37.79601406,"{'type': 'Point', 'coordinates': [-122.403647251, 37.796014065]}",SUPERVISORIAL DISTRICT 3,3.0,THREE,Chinatown,2025-01-19T03:36:00.000,2025-01-19T10:04:00.630,,,1990
148,Super Pumped: The Battle for Uber,2022,"650 howard street at new montgomery, gold club","650 howard street at new montgomery, gold club",40 new montgomery st,151702.0,1702.0,488501.0,40 new montgomery st,40.0,new montgomery,st,94105.0,9541000.0,-122.4014425,37.78801067,"{'type': 'Point', 'coordinates': [-122.401442501, 37.788010675]}",SUPERVISORIAL DISTRICT 6,6.0,SIX,Financial District/South Beach,2025-01-19T03:38:00.000,2025-01-19T10:04:00.630,,,2020
149,"Murder in the First, Season 3",2016,600 octavia street,600 octavia street,600 octavia st,184090.0,4090.0,476644.0,600 octavia st,600.0,octavia,st,94102.0,9886000.0,-122.424683,37.77781338,"{'type': 'Point', 'coordinates': [-122.424683001, 37.777813379]}",SUPERVISORIAL DISTRICT 5,5.0,FIVE,Hayes Valley,2025-01-19T03:38:00.000,2025-01-19T10:04:00.630,,,2010
150,My Big Fat Chinese Christmas,2022,hyde street between filbert and chestnut,hyde street between filbert and chestnut,322 b chestnut st,129093.0,4093.0,429902.0,322 b chestnut st,322.0,chestnut,st,94133.0,3954000.0,-122.40875269,37.80449278,"{'type': 'Point', 'coordinates': [-122.408752689, 37.804492783]}",SUPERVISORIAL DISTRICT 3,3.0,THREE,North Beach,2025-01-19T03:37:00.000,2025-01-19T10:04:00.630,B,,2020
151,Quitters,2015,923 vermont st.,923 vermont st.,923 vermont st,219230.0,4230.0,368488.0,923 vermont st,923.0,vermont,st,94107.0,13217000.0,-122.40354416,37.75797167,"{'type': 'Point', 'coordinates': [-122.403544157, 37.757971672]}",SUPERVISORIAL DISTRICT 10,10.0,TEN,Potrero Hill,2025-01-19T03:37:00.000,2025-01-19T10:04:00.630,,,2010
152,Venom: Let There Be Carnage,2021,238 columbus,238 columbus,128 columbus ave,21847.0,1847.0,497329.0,128 columbus ave,128.0,columbus,ave,94133.0,4288000.0,-122.40470812,37.79665292,"{'type': 'Point', 'coordinates': [-122.404708118, 37.796652924]}",SUPERVISORIAL DISTRICT 3,3.0,THREE,Chinatown,2025-01-19T03:39:00.000,2025-01-19T10:04:00.630,,,2020
153,The Diary of a Teenage Girl,2015,hamburger haven,hamburger haven,Empty,,,,,,,,,,,,,,,,nan,,,,,2010
154,Groove,2000,435 23rd street at illinois,435 23rd street at illinois,1301 a illinois st,22908.0,2908.0,485551.0,1301 a illinois st,1301.0,illinois,st,94107.0,7172000.0,-122.38647975,37.75511243,"{'type': 'Point', 'coordinates': [-122.386479747, 37.75511243]}",SUPERVISORIAL DISTRICT 10,10.0,TEN,Potrero Hill,2025-01-19T03:38:00.000,2025-01-19T10:04:00.630,A,,2000
155,180,2011,555 market st.,555 market st.,555 market st,177981.0,2981.0,364848.0,555 market st,555.0,market,st,94105.0,8742101.0,-122.39994382,37.79006582,"{'type': 'Point', 'coordinates': [-122.399943823, 37.790065822]}",SUPERVISORIAL DISTRICT 6,6.0,SIX,Financial District/South Beach,2025-01-19T03:37:00.000,2025-01-19T10:04:00.630,,,2010
156,Ant-Man and the Wasp,2018,pier 27,pier 27,Empty,,,,,,,,,,,,,,,,nan,,,,,2010
157,A Taiwanese Tale of Two Cities,2018,2751 mission st,2751 mission st,2751 mission st,113657.0,3657.0,449779.0,2751 mission st,2751.0,mission,st,94110.0,9125000.0,-122.41816383,37.75306326,"{'type': 'Point', 'coordinates': [-122.418163825, 37.753063258]}",SUPERVISORIAL DISTRICT 9,9.0,NINE,Mission,2025-01-19T03:38:00.000,2025-01-19T10:04:00.630,,,2010
158,Ant-Man and the Wasp: Quantumania,2023,geary street between market and leavenworth,geary street between market and leavenworth,849 a leavenworth st,213349.0,3349.0,458690.0,849 a leavenworth st,849.0,leavenworth,st,94109.0,8246000.0,-122.41558123,37.78909538,"{'type': 'Point', 'coordinates': [-122.415581229, 37.789095382]}",SUPERVISORIAL DISTRICT 3,3.0,THREE,Nob Hill,2025-01-19T03:38:00.000,2025-01-19T10:04:00.630,A,,2020
159,The Caine Mutiny,1954,the embarcadero,the embarcadero,0 the embarcadero,21.0,21.0,481023.0,0 the embarcadero,0.0,embarcadero,,94105.0,12549201.0,-122.38636372,37.78812404,"{'type': 'Point', 'coordinates': [-122.386363719, 37.78812404]}",SUPERVISORIAL DISTRICT 6,6.0,SIX,Financial District/South Beach,2025-01-19T03:38:00.000,2025-01-19T10:04:00.630,,,1950
160,Women is Losers,2020,f train charter,f train charter,Empty,,,,,,,,,,,,,,,,nan,,,,,2020
161,Time After Time,1979,"ghirardelli square (900 north point street, fisherman's wharf)","ghirardelli square (900 north point street, fisherman's wharf)",900 north point st,217612.0,2612.0,488672.0,900 north point st,900.0,north point,st,94109.0,9696000.0,-122.42318496,37.8055331,"{'type': 'Point', 'coordinates': [-122.42318496, 37.805533098]}",SUPERVISORIAL DISTRICT 2,2.0,TWO,Russian Hill,2025-01-19T03:38:00.000,2025-01-19T10:04:00.630,,,1970
162,Chance- Season 1 ep102,2016,westin st. francis,westin st. francis,14 francis st,40471.0,471.0,407869.0,14 francis st,14.0,francis,st,94112.0,5753000.0,-122.43367902,37.72698305,"{'type': 'Point', 'coordinates': [-122.433679018, 37.726983046]}",SUPERVISORIAL DISTRICT 11,11.0,ELEVEN,Outer Mission,2025-01-19T03:37:00.000,2025-01-19T10:04:00.630,,,2010
163,Surface,2022,taylor street between green and broadway,taylor street between green and broadway,700 e taylor st,196627.0,1627.0,458731.0,700 e taylor st,700.0,taylor,st,94108.0,12437000.0,-122.41178058,37.78904365,"{'type': 'Point', 'coordinates': [-122.41178058, 37.789043647]}",SUPERVISORIAL DISTRICT 3,3.0,THREE,Nob Hill,2025-01-19T03:38:00.000,2025-01-19T10:04:00.630,E,,2020
164,San Andreas,2015,transamerica pyramid (600 montgomery street),transamerica pyramid (600 montgomery street),600 montgomery st,184082.0,4082.0,279845.0,600 montgomery st,600.0,montgomery,st,94111.0,9305000.0,-122.40273227,37.79515656,"{'type': 'Point', 'coordinates': [-122.40273227, 37.795156562]}",SUPERVISORIAL DISTRICT 3,3.0,THREE,Chinatown,2025-01-19T03:36:00.000,2025-01-19T10:04:00.630,,Transamerica Pyramid,2010
165,The Presidio,1988,battery street (the embarcadero),battery street (the embarcadero),0 the embarcadero,21.0,21.0,481023.0,0 the embarcadero,0.0,embarcadero,,94105.0,12549201.0,-122.38636372,37.78812404,"{'type': 'Point', 'coordinates': [-122.386363719, 37.78812404]}",SUPERVISORIAL DISTRICT 6,6.0,SIX,Financial District/South Beach,2025-01-19T03:38:00.000,2025-01-19T10:04:00.630,,,1980
166,San Andreas,2015,battery spencer,battery spencer,2 battery st,121380.0,1380.0,458601.0,2 battery st,2.0,battery,st,94111.0,2752000.0,-122.39936341,37.79157575,"{'type': 'Point', 'coordinates': [-122.399363407, 37.791575752]}",SUPERVISORIAL DISTRICT 3,3.0,THREE,Financial District/South Beach,2025-01-19T03:38:00.000,2025-01-19T10:04:00.630,,,2010
167,Bullitt,1968,taylor & vallejo streets (russian hill),taylor & vallejo streets (russian hill),338 a vallejo st,133929.0,3929.0,476012.0,338 a vallejo st,338.0,vallejo,st,94133.0,13084000.0,-122.40312317,37.79957788,"{'type': 'Point', 'coordinates': [-122.403123164, 37.799577886]}",SUPERVISORIAL DISTRICT 3,3.0,THREE,North Beach,2025-01-19T03:38:00.000,2025-01-19T10:04:00.630,A,,1960
168,Tales of the City,2019,valencia btwn liberty and 21st st,valencia btwn liberty and 21st st,1138 a valencia st,9549.0,4549.0,491440.0,1138 a valencia st,1138.0,valencia,st,94110.0,13071000.0,-122.42119958,37.75468492,"{'type': 'Point', 'coordinates': [-122.421199576, 37.754684916]}",SUPERVISORIAL DISTRICT 9,9.0,NINE,Mission,2025-01-19T03:38:00.000,2025-01-19T10:04:00.630,A,,2010
169,Greed,1924,cliff house (1090 point lobos avenue),cliff house (1090 point lobos avenue),1090 point lobos ave,6073.0,1073.0,453145.0,1090 point lobos ave,1090.0,point lobos,ave,94121.0,10544000.0,-122.51396677,37.77858185,"{'type': 'Point', 'coordinates': [-122.513966766, 37.778581852]}",SUPERVISORIAL DISTRICT 1,1.0,ONE,Outer Richmond,2025-01-19T03:38:00.000,2025-01-19T10:04:00.630,,,1920
170,Bicentennial Man,1999,city hall,city hall,Empty,,,,,,,,,,,,,,,,nan,,,,,1990
171,Pal Joey,1957,barbary coast,barbary coast,Empty,,,,,,,,,,,,,,,,nan,,,,,1950
172,The Internship,2013,epic roasthouse,epic roasthouse,Empty,,,,,,,,,,,,,,,,nan,,,,,2010
173,Sudden Impact,1983,mt. davidson,mt. davidson,1401 davidson ave,31995.0,1995.0,374499.0,1401 davidson ave,1401.0,davidson,ave,94124.0,4613000.0,-122.388231,37.74349462,"{'type': 'Point', 'coordinates': [-122.388231001, 37.743494618]}",SUPERVISORIAL DISTRICT 10,10.0,TEN,Bayview Hunters Point,2025-01-19T03:37:00.000,2025-01-19T10:04:00.630,,,1980
174,Chance- Season 1 ep103,2016,forrest hill muni station,forrest hill muni station,1 hill st,74259.0,4259.0,490520.0,1 hill st,1.0,hill,st,94110.0,6920000.0,-122.42133049,37.75598332,"{'type': 'Point', 'coordinates': [-122.421330491, 37.755983321]}",SUPERVISORIAL DISTRICT 9,9.0,NINE,Mission,2025-01-19T03:38:00.000,2025-01-19T10:04:00.630,,,2010
175,Invasion of the Body Snatchers,1978,"ramada plaza hotel downtown (1231 market street, civic center)","ramada plaza hotel downtown (1231 market street, civic center)",1231 market st,16706.0,1706.0,422508.0,1231 market st,1231.0,market,st,94103.0,8752101.0,-122.41479116,37.77794682,"{'type': 'Point', 'coordinates': [-122.41479116, 37.777946821]}",SUPERVISORIAL DISTRICT 6,6.0,SIX,South of Market,2025-01-19T03:37:00.000,2025-01-19T10:04:00.630,,,1970
176,Chance Season 2,2017,heron @ berwick (off 8th and harrison st),heron @ berwick (off 8th and harrison st),978 a harrison st,222621.0,2621.0,477443.0,978 a harrison st,978.0,harrison,st,94107.0,6723000.0,-122.4037374,37.77786513,"{'type': 'Point', 'coordinates': [-122.403737397, 37.777865132]}",SUPERVISORIAL DISTRICT 6,6.0,SIX,South of Market,2025-01-19T03:38:00.000,2025-01-19T10:04:00.630,A,,2010
177,Etruscan Smile,2017,pier 39 san francisco,pier 39 san francisco,539 francisco st,175241.0,241.0,498207.0,539 francisco st,539.0,francisco,st,94133.0,5762000.0,-122.41409032,37.80449015,"{'type': 'Point', 'coordinates': [-122.414090322, 37.804490146]}",SUPERVISORIAL DISTRICT 3,3.0,THREE,North Beach,2025-01-19T03:39:00.000,2025-01-19T10:04:00.630,,,2010
178,Looking Season 2 ep 204,2015,"urban flowers, 4029 18th street","urban flowers, 4029 18th street",109 lower ter,6330.0,1330.0,480076.0,109 lower ter,109.0,lower,ter,94114.0,8525000.0,-122.44190825,37.76303834,"{'type': 'Point', 'coordinates': [-122.44190825, 37.763038345]}",SUPERVISORIAL DISTRICT 8,8.0,EIGHT,Castro/Upper Market,2025-01-19T03:38:00.000,2025-01-19T10:04:00.630,,,2010
179,Getting Even with Dad,1994,candlestick park (602 jamestown ave.),candlestick park (602 jamestown ave.),601 jamestown ave,184243.0,4243.0,373806.0,601 jamestown ave,601.0,jamestown,ave,94124.0,7425000.0,-122.38818487,37.71260443,"{'type': 'Point', 'coordinates': [-122.388184866, 37.71260443]}",SUPERVISORIAL DISTRICT 10,10.0,TEN,Bayview Hunters Point,2025-01-19T03:37:00.000,2025-01-19T10:04:00.630,,,1990
180,Ant-Man and the Wasp,2018,russian hill,russian hill,1 russian hill pl,74454.0,4454.0,278192.0,1 russian hill pl,1.0,russian hill,pl,94133.0,11201000.0,-122.41521114,37.79792138,"{'type': 'Point', 'coordinates': [-122.415211137, 37.797921383]}",SUPERVISORIAL DISTRICT 3,3.0,THREE,Nob Hill,2025-01-19T03:36:00.000,2025-01-19T10:04:00.630,,,2010
181,Sense8,2015,20th,20th,2 20th ave,86156.0,1156.0,300682.0,2 20th ave,2.0,20th,ave,94121.0,997000.0,-122.47951072,37.78673919,"{'type': 'Point', 'coordinates': [-122.479510714, 37.786739189]}",SUPERVISORIAL DISTRICT 1,1.0,ONE,Seacliff,2025-01-19T03:36:00.000,2025-01-19T10:04:00.630,,,2010
182,Chance - Season 1 Pilot,2016,"jonell's bar, 401 ellis","jonell's bar, 401 ellis",401 ellis st,149955.0,4955.0,281790.0,401 ellis st,401.0,ellis,st,94102.0,5174000.0,-122.41301603,37.7846739,"{'type': 'Point', 'coordinates': [-122.413016026, 37.784673902]}",SUPERVISORIAL DISTRICT 5,5.0,FIVE,Tenderloin,2025-01-19T03:36:00.000,2025-01-19T10:04:00.630,,,2010
183,Freebie and the Bean,1974,twin peaks,twin peaks,1 twin peaks blvd,74538.0,4538.0,343667.0,1 twin peaks blvd,1.0,twin peaks,blvd,94114.0,12759000.0,-122.44655974,37.76053119,"{'type': 'Point', 'coordinates': [-122.446559743, 37.76053119]}",SUPERVISORIAL DISTRICT 8,8.0,EIGHT,Inner Sunset,2025-01-19T03:36:00.000,2025-01-19T10:04:00.630,,,1970
184,The OA Part II,2019,sf war memorial opera house,sf war memorial opera house,Empty,,,,,,,,,,,,,,,,nan,,,,,2010
185,Shang-Chi and the Legend of the Ten Rings,2021,noe between alvarado and liberty,noe between alvarado and liberty,66 b alvarado st,193252.0,3252.0,478330.0,66 b alvarado st,66.0,alvarado,st,94110.0,2226000.0,-122.42251205,37.75465162,"{'type': 'Point', 'coordinates': [-122.422512051, 37.754651625]}",SUPERVISORIAL DISTRICT 9,9.0,NINE,Mission,2025-01-19T03:38:00.000,2025-01-19T10:04:00.630,B,,2020
186,Always Be My Maybe,2019,palace of fine arts (3301 lyon street),palace of fine arts (3301 lyon street),3301 lyon st,131399.0,1399.0,454272.0,3301 lyon st,3301.0,lyon,st,94123.0,8584000.0,-122.44829559,37.80188372,"{'type': 'Point', 'coordinates': [-122.448295586, 37.801883717]}",SUPERVISORIAL DISTRICT 2,2.0,TWO,Marina,2025-01-19T03:38:00.000,2025-01-19T10:04:00.630,,,2010
187,Big Eyes,2014,nobles alley,nobles alley,2 nobles aly,121663.0,1663.0,277510.0,2 nobles aly,2.0,nobles,aly,94133.0,9606000.0,-122.40749182,37.80102297,"{'type': 'Point', 'coordinates': [-122.407491814, 37.801022968]}",SUPERVISORIAL DISTRICT 3,3.0,THREE,North Beach,2025-01-19T03:36:00.000,2025-01-19T10:04:00.630,,,2010
188,Godzilla,2014,post & jones st.,post & jones st.,1 post st,74415.0,4415.0,446891.0,1 post st,1.0,post,st,94104.0,10624001.0,-122.40257457,37.78877874,"{'type': 'Point', 'coordinates': [-122.402574568, 37.788778738]}",SUPERVISORIAL DISTRICT 3,3.0,THREE,Financial District/South Beach,2025-01-19T03:38:00.000,2025-01-19T10:04:00.630,,,2010
189,Sudden Impact,1983,"mcdonald's restaurant (701 3rd street, soma)","mcdonald's restaurant (701 3rd street, soma)",Empty,,,,,,,,,,,,,,,,nan,,,,,1980
190,Edtv,1999,mario's bohemian cigar store (washington square),mario's bohemian cigar store (washington square),738 a washington st,201487.0,1487.0,476781.0,738 a washington st,738.0,washington,st,94108.0,13411000.0,-122.4057807,37.79548406,"{'type': 'Point', 'coordinates': [-122.405780694, 37.79548406]}",SUPERVISORIAL DISTRICT 3,3.0,THREE,Chinatown,2025-01-19T03:38:00.000,2025-01-19T10:04:00.630,A,,1990
191,Nash Bridges,2021,davis street between,davis street between,500 davis st,168625.0,3625.0,497514.0,500 davis st,500.0,davis,st,94111.0,4609000.0,-122.39823493,37.7972993,"{'type': 'Point', 'coordinates': [-122.398234932, 37.797299299]}",SUPERVISORIAL DISTRICT 3,3.0,THREE,Financial District/South Beach,2025-01-19T03:39:00.000,2025-01-19T10:04:00.630,,,2020
192,Etruscan Smile,2017,"andronico's, 1200 irving street","andronico's, 1200 irving street",1200 irving st,13748.0,3748.0,315718.0,1200 irving st,1200.0,irving,st,94122.0,7290000.0,-122.47116806,37.76434888,"{'type': 'Point', 'coordinates': [-122.471168056, 37.764348881]}",SUPERVISORIAL DISTRICT 7,7.0,SEVEN,Inner Sunset,2025-01-19T03:36:00.000,2025-01-19T10:04:00.630,,,2010
193,Edtv,1999,"castro theatre (429 castro street, the castro)","castro theatre (429 castro street, the castro)",542 a castro st,175846.0,846.0,493231.0,542 a castro st,542.0,castro,st,94114.0,3791000.0,-122.43544261,37.76019656,"{'type': 'Point', 'coordinates': [-122.435442605, 37.760196559]}",SUPERVISORIAL DISTRICT 8,8.0,EIGHT,Castro/Upper Market,2025-01-19T03:39:00.000,2025-01-19T10:04:00.630,A,,1990
194,Chance- Season 1 ep109,2016,2 rowland,2 rowland,Empty,,,,,,,,,,,,,,,,nan,,,,,2010
195,A Taiwanese Tale of Two Cities,2018,sutter st at taylor st,sutter st at taylor st,1 sutter st,74517.0,4517.0,453115.0,1 sutter st,1.0,sutter,st,94104.0,12316000.0,-122.4007831,37.7900566,"{'type': 'Point', 'coordinates': [-122.400783096, 37.790056599]}",SUPERVISORIAL DISTRICT 3,3.0,THREE,Financial District/South Beach,2025-01-19T03:38:00.000,2025-01-19T10:04:00.630,,,2010
196,Getting Even with Dad,1994,140 maiden lane,140 maiden lane,140 maiden ln,32727.0,2727.0,281475.0,140 maiden ln,140.0,maiden,ln,94108.0,8626000.0,-122.40589013,37.78826544,"{'type': 'Point', 'coordinates': [-122.405890126, 37.788265443]}",SUPERVISORIAL DISTRICT 3,3.0,THREE,Financial District/South Beach,2025-01-19T03:36:00.000,2025-01-19T10:04:00.630,,,1990
197,The Woman In Red,1984,brocklebank apartments (1000 mason street),brocklebank apartments (1000 mason street),1000 mason st,101.0,101.0,280264.0,1000 mason st,1000.0,mason,st,94108.0,8813000.0,-122.41047027,37.79308723,"{'type': 'Point', 'coordinates': [-122.410470272, 37.793087231]}",SUPERVISORIAL DISTRICT 3,3.0,THREE,Nob Hill,2025-01-19T03:36:00.000,2025-01-19T10:04:00.630,,,1980
198,The Princess Diaries,2001,2601 lyon street,2601 lyon street,2601 lyon st,107206.0,2206.0,484064.0,2601 lyon st,2601.0,lyon,st,94123.0,8577000.0,-122.446997,37.79468382,"{'type': 'Point', 'coordinates': [-122.446996996, 37.794683823]}",SUPERVISORIAL DISTRICT 2,2.0,TWO,Presidio,2025-01-19T03:38:00.000,2025-01-19T10:04:00.630,,,2000
199,Alcatraz,2012,broadway from mason to taylor,broadway from mason to taylor,700 e taylor st,196627.0,1627.0,458731.0,700 e taylor st,700.0,taylor,st,94108.0,12437000.0,-122.41178058,37.78904365,"{'type': 'Point', 'coordinates': [-122.41178058, 37.789043647]}",SUPERVISORIAL DISTRICT 3,3.0,THREE,Nob Hill,2025-01-19T03:38:00.000,2025-01-19T10:04:00.630,E,,2010
200,The Diary of a Teenage Girl,2015,yerba buena island,yerba buena island,1 yerba buena ln,74587.0,4587.0,470312.0,1 yerba buena ln,1.0,yerba buena,ln,94103.0,15061000.0,-122.40439104,37.78539565,"{'type': 'Point', 'coordinates': [-122.404391042, 37.785395654]}",SUPERVISORIAL DISTRICT 6,6.0,SIX,Financial District/South Beach,2025-01-19T03:38:00.000,2025-01-19T10:04:00.630,,,2010
201,Foul Play,1978,octavia & hayes streets (hayes valley),octavia & hayes streets (hayes valley),2826 a octavia st,116314.0,1314.0,489847.0,2826 a octavia st,2826.0,octavia,st,94123.0,9900000.0,-122.42882637,37.7983458,"{'type': 'Point', 'coordinates': [-122.428826365, 37.798345803]}",SUPERVISORIAL DISTRICT 2,2.0,TWO,Marina,2025-01-19T03:38:00.000,2025-01-19T10:04:00.630,A,,1970
202,Goliath- Season 4,2021,union at jasper place,union at jasper place,34 a jasper pl,136975.0,1975.0,491171.0,34 a jasper pl,34.0,jasper,pl,94133.0,7451000.0,-122.40812178,37.8000291,"{'type': 'Point', 'coordinates': [-122.40812178, 37.800029103]}",SUPERVISORIAL DISTRICT 3,3.0,THREE,North Beach,2025-01-19T03:38:00.000,2025-01-19T10:04:00.630,A,,2020
203,Nine Months,1995,"san francisco general hospital medical center (1001 potrero avenue, potrero hill)","san francisco general hospital medical center (1001 potrero avenue, potrero hill)",1076 a francisco st,5271.0,271.0,464763.0,1076 a francisco st,1076.0,francisco,st,94109.0,5769003.0,-122.42284727,37.80378149,"{'type': 'Point', 'coordinates': [-122.422847265, 37.803781492]}",SUPERVISORIAL DISTRICT 2,2.0,TWO,Russian Hill,2025-01-19T03:38:00.000,2025-01-19T10:04:00.630,A,,1990
204,Freebie and the Bean,1974,embarcadero freeway,embarcadero freeway,0 the embarcadero,21.0,21.0,481023.0,0 the embarcadero,0.0,embarcadero,,94105.0,12549201.0,-122.38636372,37.78812404,"{'type': 'Point', 'coordinates': [-122.386363719, 37.78812404]}",SUPERVISORIAL DISTRICT 6,6.0,SIX,Financial District/South Beach,2025-01-19T03:38:00.000,2025-01-19T10:04:00.630,,,1970
205,Magnum Force,1973,"lefty o' doul drawbridge/ 3rd street bridge (3rd street, china basin)","lefty o' doul drawbridge/ 3rd street bridge (3rd street, china basin)",325 china basin st,130036.0,36.0,469793.0,325 china basin st,325.0,china basin,st,94158.0,15024000.0,-122.38743966,37.77203182,"{'type': 'Point', 'coordinates': [-122.387439662, 37.772031819]}",SUPERVISORIAL DISTRICT 6,6.0,SIX,Mission Bay,2025-01-19T03:38:00.000,2025-01-19T10:04:00.630,,,1970
206,The Diary of a Teenage Girl,2015,ocean beach at point lobos,ocean beach at point lobos,2 point lobos ave,121691.0,1691.0,305277.0,2 point lobos ave,2.0,point lobos,ave,94121.0,10536000.0,-122.50324321,37.7798566,"{'type': 'Point', 'coordinates': [-122.50324321, 37.779856606]}",SUPERVISORIAL DISTRICT 1,1.0,ONE,Outer Richmond,2025-01-19T03:36:00.000,2025-01-19T10:04:00.630,,,2010
207,Sense8,2015,22nd st.,22nd st.,8 22nd st,210829.0,829.0,486469.0,8 22nd st,8.0,22nd,st,94107.0,15236000.0,-122.38331407,37.75780614,"{'type': 'Point', 'coordinates': [-122.383314073, 37.757806144]}",SUPERVISORIAL DISTRICT 10,10.0,TEN,Potrero Hill,2025-01-19T03:38:00.000,2025-01-19T10:04:00.630,,,2010
208,The Bachelor,1999,columbus avenue at green & stockton,columbus avenue at green & stockton,4 columbus ave,168376.0,3376.0,279801.0,4 columbus ave,4.0,columbus,ave,94111.0,4286000.0,-122.40364725,37.79601406,"{'type': 'Point', 'coordinates': [-122.403647251, 37.796014065]}",SUPERVISORIAL DISTRICT 3,3.0,THREE,Chinatown,2025-01-19T03:36:00.000,2025-01-19T10:04:00.630,,,1990
209,Serial,1980,ferry building,ferry building,Empty,,,,,,,,,,,,,,,,nan,,,,,1980
210,Junior,1994,chinatown gate,chinatown gate,1 ina ct,74271.0,4271.0,388980.0,1 ina ct,1.0,ina,ct,94112.0,7182000.0,-122.42432421,37.72377167,"{'type': 'Point', 'coordinates': [-122.424324209, 37.72377167]}",SUPERVISORIAL DISTRICT 11,11.0,ELEVEN,Excelsior,2025-01-19T03:37:00.000,2025-01-19T10:04:00.630,,,1990
211,Tales of the City,2019,north beach,north beach,1 beach st,74073.0,4073.0,275821.0,1 beach st,1.0,beach,st,94133.0,2838000.0,-122.40957206,37.80774727,"{'type': 'Point', 'coordinates': [-122.40957206, 37.807747274]}",SUPERVISORIAL DISTRICT 3,3.0,THREE,North Beach,2025-01-19T03:36:00.000,2025-01-19T10:04:00.630,,,2010
212,Looking,2014,2866 24th st.,2866 24th st.,2866 24th st,117615.0,2615.0,370144.0,2866 24th st,2866.0,24th,st,94110.0,1333000.0,-122.40968379,37.75299349,"{'type': 'Point', 'coordinates': [-122.40968379, 37.752993493]}",SUPERVISORIAL DISTRICT 9,9.0,NINE,Mission,2025-01-19T03:37:00.000,2025-01-19T10:04:00.630,,,2010
213,The Game,1997,city club (155 sansome street),city club (155 sansome street),155 sansome st,46086.0,1086.0,280819.0,155 sansome st,155.0,sansome,st,94104.0,11543000.0,-122.40124173,37.7916483,"{'type': 'Point', 'coordinates': [-122.401241732, 37.791648298]}",SUPERVISORIAL DISTRICT 3,3.0,THREE,Financial District/South Beach,2025-01-19T03:36:00.000,2025-01-19T10:04:00.630,,,1990
214,Invasion of the Body Snatchers,1978,720 steiner street (hayes valley),720 steiner street (hayes valley),210 a valley st,80416.0,416.0,403852.0,210 a valley st,210.0,valley,st,94131.0,13127000.0,-122.42730182,37.74470917,"{'type': 'Point', 'coordinates': [-122.427301817, 37.744709169]}",SUPERVISORIAL DISTRICT 8,8.0,EIGHT,Noe Valley,2025-01-19T03:37:00.000,2025-01-19T10:04:00.630,A,,1970
215,Steve Jobs,2015,powell st. from california st. to sutter st.,powell st. from california st. to sutter st.,1 california st,74109.0,4109.0,280800.0,1 california st,1.0,california,st,94111.0,3524000.0,-122.39704304,37.79321375,"{'type': 'Point', 'coordinates': [-122.397043036, 37.793213746]}",SUPERVISORIAL DISTRICT 3,3.0,THREE,Financial District/South Beach,2025-01-19T03:36:00.000,2025-01-19T10:04:00.630,,,2010
216,Hulk,2003,golden gate bridge,golden gate bridge,35 golden gate ave,139814.0,4814.0,504218.0,35 golden gate ave,35.0,golden gate,ave,94102.0,6259000.0,-122.41125013,37.78205104,"{'type': 'Point', 'coordinates': [-122.411250124, 37.782051037]}",SUPERVISORIAL DISTRICT 5,5.0,FIVE,Tenderloin,2025-01-19T03:40:00.000,2025-01-19T10:04:00.630,,,2000
217,Chance- Season 1 ep103,2016,60 potomac,60 potomac,60 potomac st,185239.0,239.0,289883.0,60 potomac st,60.0,potomac,st,94117.0,10657000.0,-122.43233006,37.77015828,"{'type': 'Point', 'coordinates': [-122.432330061, 37.770158283]}",SUPERVISORIAL DISTRICT 8,8.0,EIGHT,Haight Ashbury,2025-01-19T03:36:00.000,2025-01-19T10:04:00.630,,,2010
218,Hulk,2003,telegraph hill,telegraph hill,1 telegraph hill blvd,74524.0,4524.0,483642.0,1 telegraph hill blvd,1.0,telegraph hill,blvd,94133.0,12479001.0,-122.40588443,37.80231192,"{'type': 'Point', 'coordinates': [-122.405884426, 37.802311917]}",SUPERVISORIAL DISTRICT 3,3.0,THREE,North Beach,2025-01-19T03:38:00.000,2025-01-19T10:04:00.630,,,2000
219,Super Pumped: The Battle for Uber,2022,harrison street between spear and embarcadero,harrison street between spear and embarcadero,0 the embarcadero,21.0,21.0,481023.0,0 the embarcadero,0.0,embarcadero,,94105.0,12549201.0,-122.38636372,37.78812404,"{'type': 'Point', 'coordinates': [-122.386363719, 37.78812404]}",SUPERVISORIAL DISTRICT 6,6.0,SIX,Financial District/South Beach,2025-01-19T03:38:00.000,2025-01-19T10:04:00.630,,,2020
220,"Murder in the First, Season 3",2016,patricia's green,patricia's green,1552 p green st,45408.0,408.0,284894.0,1552 p green st,1552.0,green,st,94123.0,6468000.0,-122.42483151,37.79777352,"{'type': 'Point', 'coordinates': [-122.424831507, 37.797773526]}",SUPERVISORIAL DISTRICT 2,2.0,TWO,Marina,2025-01-19T03:36:00.000,2025-01-19T10:04:00.630,P,,2010
221,The Conversation,1974,union square,union square,1 union st,74540.0,4540.0,453646.0,1 union st,1.0,union,st,94111.0,12832000.0,-122.40071984,37.80123672,"{'type': 'Point', 'coordinates': [-122.400719835, 37.801236724]}",SUPERVISORIAL DISTRICT 3,3.0,THREE,Financial District/South Beach,2025-01-19T03:38:00.000,2025-01-19T10:04:00.630,,,1970
222,Mrs. Doubtfire,1993,516 green street,516 green street,516 green st,171175.0,1175.0,277785.0,516 green st,516.0,green,st,94133.0,6452000.0,-122.40783347,37.79982447,"{'type': 'Point', 'coordinates': [-122.407833471, 37.799824473]}",SUPERVISORIAL DISTRICT 3,3.0,THREE,North Beach,2025-01-19T03:36:00.000,2025-01-19T10:04:00.630,,,1990
223,Shang-Chi and the Legend of the Ten Rings,2021,post between van ness and kearny,post between van ness and kearny,1135 b kearny st,9400.0,4400.0,421482.0,1135 b kearny st,1135.0,kearny,st,94133.0,7766000.0,-122.40575832,37.79850673,"{'type': 'Point', 'coordinates': [-122.40575832, 37.798506735]}",SUPERVISORIAL DISTRICT 3,3.0,THREE,North Beach,2025-01-19T03:37:00.000,2025-01-19T10:04:00.630,B,,2020
224,The Phone/Jexi,2019,mash transit - 284 sanchez st,mash transit - 284 sanchez st,684 a sanchez st,195035.0,35.0,361828.0,684 a sanchez st,684.0,sanchez,st,94114.0,11520000.0,-122.43045224,37.75814899,"{'type': 'Point', 'coordinates': [-122.430452238, 37.75814899]}",SUPERVISORIAL DISTRICT 8,8.0,EIGHT,Castro/Upper Market,2025-01-19T03:37:00.000,2025-01-19T10:04:00.630,A,,2010
225,Ant-Man and the Wasp,2018,jones st btwn sacramento and pine,jones st btwn sacramento and pine,1359 b sacramento st,28403.0,3403.0,446864.0,1359 b sacramento st,1359.0,sacramento,st,94109.0,11242000.0,-122.41525105,37.79205318,"{'type': 'Point', 'coordinates': [-122.415251054, 37.792053184]}",SUPERVISORIAL DISTRICT 3,3.0,THREE,Nob Hill,2025-01-19T03:38:00.000,2025-01-19T10:04:00.630,B,,2010
226,"Budding Prospects, Pilot",2017,3050 24th street,3050 24th street,3050 24th st,123626.0,3626.0,363973.0,3050 24th st,3050.0,24th,st,94110.0,1338000.0,-122.41321625,37.75277621,"{'type': 'Point', 'coordinates': [-122.413216249, 37.752776212]}",SUPERVISORIAL DISTRICT 9,9.0,NINE,Mission,2025-01-19T03:37:00.000,2025-01-19T10:04:00.630,,,2010
227,The Conversation,1974,one embarcadero center (financial district),one embarcadero center (financial district),0 the embarcadero,21.0,21.0,481023.0,0 the embarcadero,0.0,embarcadero,,94105.0,12549201.0,-122.38636372,37.78812404,"{'type': 'Point', 'coordinates': [-122.386363719, 37.78812404]}",SUPERVISORIAL DISTRICT 6,6.0,SIX,Financial District/South Beach,2025-01-19T03:38:00.000,2025-01-19T10:04:00.630,,,1970
228,Chance- Season 1 ep104,2016,1018 tennessee st.,1018 tennessee st.,1018 tennessee st,1380.0,1380.0,457376.0,1018 tennessee st,1018.0,tennessee,st,94107.0,12485000.0,-122.38965669,37.75893626,"{'type': 'Point', 'coordinates': [-122.389656685, 37.758936257]}",SUPERVISORIAL DISTRICT 10,10.0,TEN,Potrero Hill,2025-01-19T03:38:00.000,2025-01-19T10:04:00.630,,,2010
229,Looking Season 2 ep 202,2015,eddy @ polk street,eddy @ polk street,1 polk st,74414.0,4414.0,288711.0,1 polk st,1.0,polk,st,94102.0,10546000.0,-122.41803922,37.77667443,"{'type': 'Point', 'coordinates': [-122.418039214, 37.776674431]}",SUPERVISORIAL DISTRICT 6,6.0,SIX,Tenderloin,2025-01-19T03:36:00.000,2025-01-19T10:04:00.630,,,2010
230,The Bachelor,1999,"steinhart aquarium (california academy of sciences, golden gate park)","steinhart aquarium (california academy of sciences, golden gate park)",1373 a california st,29893.0,4893.0,424246.0,1373 a california st,1373.0,california,st,94109.0,3546000.0,-122.41679143,37.79074643,"{'type': 'Point', 'coordinates': [-122.416791433, 37.790746429]}",SUPERVISORIAL DISTRICT 3,3.0,THREE,Nob Hill,2025-01-19T03:37:00.000,2025-01-19T10:04:00.630,A,,1990
231,DEVS,2020,coit tower,coit tower,Empty,,,,,,,,,,,,,,,,nan,,,,,2020
232,Time After Time,1979,united nations plaza (civic center),united nations plaza (civic center),10 united nations plz,6813.0,1813.0,282042.0,10 united nations plz,10.0,united nations,plz,94102.0,5880000.0,-122.41320393,37.78046933,"{'type': 'Point', 'coordinates': [-122.413203926, 37.78046933]}",SUPERVISORIAL DISTRICT 5,5.0,FIVE,Tenderloin,2025-01-19T03:36:00.000,2025-01-19T10:04:00.630,,,1970
233,"Smile Again, Jenny Lee",2015,e tutto qua restaurant (270 columbus st.),e tutto qua restaurant (270 columbus st.),270 columbus ave,111837.0,1837.0,279117.0,270 columbus ave,270.0,columbus,ave,94133.0,4291000.0,-122.40624949,37.79775593,"{'type': 'Point', 'coordinates': [-122.406249494, 37.797755933]}",SUPERVISORIAL DISTRICT 3,3.0,THREE,North Beach,2025-01-19T03:36:00.000,2025-01-19T10:04:00.630,,,2010
234,Nash Bridges,2021,"pier 9, at autodesk","pier 9, at autodesk",Empty,,,,,,,,,,,,,,,,nan,,,,,2020
235,50 First Dates,2004,rainforest café (145 jefferson street),rainforest café (145 jefferson street),1456 a jefferson st,37159.0,2159.0,446924.0,1456 a jefferson st,1456.0,jefferson,st,94123.0,7461000.0,-122.43657735,37.80587546,"{'type': 'Point', 'coordinates': [-122.436577345, 37.805875458]}",SUPERVISORIAL DISTRICT 2,2.0,TWO,Marina,2025-01-19T03:38:00.000,2025-01-19T10:04:00.630,A,,2000
236,Chance - Season 1 Pilot,2016,60 leavenworth st.,60 leavenworth st.,60 leavenworth st,185158.0,158.0,282024.0,60 leavenworth st,60.0,leavenworth,st,94102.0,8238000.0,-122.41357486,37.78115917,"{'type': 'Point', 'coordinates': [-122.413574856, 37.781159173]}",SUPERVISORIAL DISTRICT 5,5.0,FIVE,Tenderloin,2025-01-19T03:36:00.000,2025-01-19T10:04:00.630,,,2010
237,Chance- Season 1 ep103,2016,san bruno and alameda,san bruno and alameda,0 san bruno ave,19.0,19.0,392890.0,0 san bruno ave,0.0,san bruno,ave,94134.0,11386000.0,-122.40069722,37.71935745,"{'type': 'Point', 'coordinates': [-122.400697215, 37.719357455]}",SUPERVISORIAL DISTRICT 10,10.0,TEN,Portola,2025-01-19T03:37:00.000,2025-01-19T10:04:00.630,,,2010
238,Woman on the Run,1950,772 commercial street at kearney,772 commercial street at kearney,772 commercial st,205868.0,868.0,280357.0,772 commercial st,772.0,commercial,st,94108.0,4315000.0,-122.40587022,37.79399722,"{'type': 'Point', 'coordinates': [-122.405870219, 37.793997216]}",SUPERVISORIAL DISTRICT 3,3.0,THREE,Chinatown,2025-01-19T03:36:00.000,2025-01-19T10:04:00.630,,,1950
239,Tweek City,2005,Empty,Empty,Empty,,,,,,,,,,,,,,,,nan,,,,,2000
240,Ant-Man and the Wasp,2018,490 geary st,490 geary st,490 geary st,167402.0,2402.0,281445.0,490 geary st,490.0,geary,st,94102.0,6111000.0,-122.4113346,37.78714245,"{'type': 'Point', 'coordinates': [-122.411334595, 37.787142453]}",SUPERVISORIAL DISTRICT 3,3.0,THREE,Tenderloin,2025-01-19T03:36:00.000,2025-01-19T10:04:00.630,,,2010
241,Looking Season 2 ep 206,2015,1890 clay street,1890 clay street,1890 clay st,68303.0,3303.0,286370.0,1890 clay st,1890.0,clay,st,94109.0,4107000.0,-122.42402444,37.79218947,"{'type': 'Point', 'coordinates': [-122.424024434, 37.792189466]}",SUPERVISORIAL DISTRICT 2,2.0,TWO,Pacific Heights,2025-01-19T03:36:00.000,2025-01-19T10:04:00.630,,,2010
242,Chance Season 2,2017,embarcadero at lombard st.,embarcadero at lombard st.,0 the embarcadero,21.0,21.0,481023.0,0 the embarcadero,0.0,embarcadero,,94105.0,12549201.0,-122.38636372,37.78812404,"{'type': 'Point', 'coordinates': [-122.386363719, 37.78812404]}",SUPERVISORIAL DISTRICT 6,6.0,SIX,Financial District/South Beach,2025-01-19T03:38:00.000,2025-01-19T10:04:00.630,,,2010
243,Shit and Champagne,2020,57 taylor st,57 taylor st,57 taylor st,181720.0,1720.0,488122.0,57 taylor st,57.0,taylor,st,94102.0,12425000.0,-122.41085155,37.78288028,"{'type': 'Point', 'coordinates': [-122.410851553, 37.782880282]}",SUPERVISORIAL DISTRICT 5,5.0,FIVE,Tenderloin,2025-01-19T03:38:00.000,2025-01-19T10:04:00.630,,,2020
244,D.O.A,1950,powell & california streets,powell & california streets,1 california st,74109.0,4109.0,280800.0,1 california st,1.0,california,st,94111.0,3524000.0,-122.39704304,37.79321375,"{'type': 'Point', 'coordinates': [-122.397043036, 37.793213746]}",SUPERVISORIAL DISTRICT 3,3.0,THREE,Financial District/South Beach,2025-01-19T03:36:00.000,2025-01-19T10:04:00.630,,,1950
245,Need For Speed,2014,mason st from pine to sacramento,mason st from pine to sacramento,1359 a sacramento st,28398.0,3398.0,446858.0,1359 a sacramento st,1359.0,sacramento,st,94109.0,11242000.0,-122.41525105,37.79205318,"{'type': 'Point', 'coordinates': [-122.415251054, 37.792053184]}",SUPERVISORIAL DISTRICT 3,3.0,THREE,Nob Hill,2025-01-19T03:38:00.000,2025-01-19T10:04:00.630,A,,2010
246,Love & Taxes,2014,the marsh theatre (1062 valencia street),the marsh theatre (1062 valencia street),1306 a valencia st,23157.0,3157.0,505398.0,1306 a valencia st,1306.0,valencia,st,94110.0,13073000.0,-122.42093692,37.75184866,"{'type': 'Point', 'coordinates': [-122.420936916, 37.751848657]}",SUPERVISORIAL DISTRICT 8,8.0,EIGHT,Mission,2025-01-19T03:40:00.000,2025-01-19T10:04:00.630,A,,2010
247,Chance - Season 1 Pilot,2016,"warren's antiques, 375 9th st.","warren's antiques, 375 9th st.",35 warren dr,140068.0,68.0,343989.0,35 warren dr,35.0,warren,dr,94131.0,13396000.0,-122.45635389,37.75458435,"{'type': 'Point', 'coordinates': [-122.456353886, 37.754584353]}",SUPERVISORIAL DISTRICT 7,7.0,SEVEN,Inner Sunset,2025-01-19T03:36:00.000,2025-01-19T10:04:00.630,,,2010
248,Love & Taxes,2014,20 hill street,20 hill street,20 hill st,79767.0,4767.0,362888.0,20 hill st,20.0,hill,st,94110.0,6920000.0,-122.4220184,37.75628811,"{'type': 'Point', 'coordinates': [-122.422018398, 37.756288107]}",SUPERVISORIAL DISTRICT 9,9.0,NINE,Mission,2025-01-19T03:37:00.000,2025-01-19T10:04:00.630,,,2010
249,The Maltese Falcon,1941,"burritt alley (off bush street, between powell and stockton streets)","burritt alley (off bush street, between powell and stockton streets)",1723 a stockton st,57834.0,2834.0,505367.0,1723 a stockton st,1723.0,stockton,st,94133.0,12215000.0,-122.40986036,37.80168975,"{'type': 'Point', 'coordinates': [-122.409860357, 37.801689755]}",SUPERVISORIAL DISTRICT 3,3.0,THREE,North Beach,2025-01-19T03:40:00.000,2025-01-19T10:04:00.630,A,,1940
250,George of the Jungle,1997,755 vallejo street,755 vallejo street,75 vallejo st,204433.0,4433.0,504248.0,75 vallejo st,75.0,vallejo,st,94111.0,13080000.0,-122.39969196,37.79960846,"{'type': 'Point', 'coordinates': [-122.399691963, 37.79960846]}",SUPERVISORIAL DISTRICT 3,3.0,THREE,Financial District/South Beach,2025-01-19T03:40:00.000,2025-01-19T10:04:00.630,,,1990
251,By Hook or By Crook,2001,"department of public health (101 grove street at polk, civic center)","department of public health (101 grove street at polk, civic center)",501 a grove st,168818.0,3818.0,288630.0,501 a grove st,501.0,grove,st,94102.0,6558000.0,-122.42510629,37.77730557,"{'type': 'Point', 'coordinates': [-122.425106291, 37.777305573]}",SUPERVISORIAL DISTRICT 5,5.0,FIVE,Hayes Valley,2025-01-19T03:36:00.000,2025-01-19T10:04:00.630,A,,2000
252,Quitters,2015,1536 noe st.,1536 noe st.,1536 noe st,43966.0,3966.0,403768.0,1536 noe st,1536.0,noe,st,94131.0,9636000.0,-122.43152691,37.74447,"{'type': 'Point', 'coordinates': [-122.431526909, 37.744469999]}",SUPERVISORIAL DISTRICT 8,8.0,EIGHT,Noe Valley,2025-01-19T03:37:00.000,2025-01-19T10:04:00.630,,,2010
253,Sense8 - Season 2,2016,"the castro theater, 429 castro st.","the castro theater, 429 castro st.",542 a castro st,175846.0,846.0,493231.0,542 a castro st,542.0,castro,st,94114.0,3791000.0,-122.43544261,37.76019656,"{'type': 'Point', 'coordinates': [-122.435442605, 37.760196559]}",SUPERVISORIAL DISTRICT 8,8.0,EIGHT,Castro/Upper Market,2025-01-19T03:39:00.000,2025-01-19T10:04:00.630,A,,2010
254,Bitter Melon,2018,145 9th st,145 9th st,Empty,,,,,,,,,,,,,,,,nan,,,,,2010
255,I’m A Virgo,2023,portsmouth square park,portsmouth square park,24 park st,101887.0,1887.0,405337.0,24 park st,24.0,park,st,94110.0,10260000.0,-122.42565369,37.73651776,"{'type': 'Point', 'coordinates': [-122.425653685, 37.736517765]}",SUPERVISORIAL DISTRICT 8,8.0,EIGHT,Bernal Heights,2025-01-19T03:37:00.000,2025-01-19T10:04:00.630,,,2020
256,Final Analysis,1992,"presidio, golden gate national recreation area","presidio, golden gate national recreation area",35 golden gate ave,139814.0,4814.0,504218.0,35 golden gate ave,35.0,golden gate,ave,94102.0,6259000.0,-122.41125013,37.78205104,"{'type': 'Point', 'coordinates': [-122.411250124, 37.782051037]}",SUPERVISORIAL DISTRICT 5,5.0,FIVE,Tenderloin,2025-01-19T03:40:00.000,2025-01-19T10:04:00.630,,,1990
257,Terminator - Genisys,2015,california between leavenworth and powell,california between leavenworth and powell,2731 b california st,112858.0,2858.0,489949.0,2731 b california st,2731.0,california,st,94115.0,3561000.0,-122.43986357,37.78797717,"{'type': 'Point', 'coordinates': [-122.439863571, 37.787977176]}",SUPERVISORIAL DISTRICT 2,2.0,TWO,Pacific Heights,2025-01-19T03:38:00.000,2025-01-19T10:04:00.630,B,,2010
258,Summertime,2015,sansome (washington to bush) pine (davis to kearny) bush: kearny to battery,sansome (washington to bush) pine (davis to kearny) bush: kearny to battery,738 a washington st,201487.0,1487.0,476781.0,738 a washington st,738.0,washington,st,94108.0,13411000.0,-122.4057807,37.79548406,"{'type': 'Point', 'coordinates': [-122.405780694, 37.79548406]}",SUPERVISORIAL DISTRICT 3,3.0,THREE,Chinatown,2025-01-19T03:38:00.000,2025-01-19T10:04:00.630,A,,2010
259,The Net,1995,montgomery & market streets,montgomery & market streets,1 montgomery st,74375.0,4375.0,281209.0,1 montgomery st,1.0,montgomery,st,94104.0,9297000.0,-122.4024186,37.78924955,"{'type': 'Point', 'coordinates': [-122.402418596, 37.789249549]}",SUPERVISORIAL DISTRICT 3,3.0,THREE,Financial District/South Beach,2025-01-19T03:36:00.000,2025-01-19T10:04:00.630,,,1990
260,Chance Season 2,2017,embarcadero between bay and chestnut st,embarcadero between bay and chestnut st,0 the embarcadero,21.0,21.0,481023.0,0 the embarcadero,0.0,embarcadero,,94105.0,12549201.0,-122.38636372,37.78812404,"{'type': 'Point', 'coordinates': [-122.386363719, 37.78812404]}",SUPERVISORIAL DISTRICT 6,6.0,SIX,Financial District/South Beach,2025-01-19T03:38:00.000,2025-01-19T10:04:00.630,,,2010
261,Big Sur,2013,"tosca café (242 columbus avenue, north beach)","tosca café (242 columbus avenue, north beach)",242 columbus ave,98382.0,3382.0,484440.0,242 columbus ave,242.0,columbus,ave,94133.0,4290000.0,-122.40593486,37.79754075,"{'type': 'Point', 'coordinates': [-122.405934855, 37.797540755]}",SUPERVISORIAL DISTRICT 3,3.0,THREE,North Beach,2025-01-19T03:38:00.000,2025-01-19T10:04:00.630,,,2010
262,Hard to Hold,1984,"fairmont hotel (950 mason street, nob hill)","fairmont hotel (950 mason street, nob hill)",950 mason st,221075.0,1075.0,280508.0,950 mason st,950.0,mason,st,94108.0,8812000.0,-122.41067191,37.79217524,"{'type': 'Point', 'coordinates': [-122.410671906, 37.792175242]}",SUPERVISORIAL DISTRICT 3,3.0,THREE,Nob Hill,2025-01-19T03:36:00.000,2025-01-19T10:04:00.630,,,1980
263,Looking Season 2 ep 204,2015,601 buena vista ave west,601 buena vista ave west,601 buena vista ave west,184194.0,4194.0,341793.0,601 buena vista ave west,601.0,buena vista,ave,94117.0,3368000.0,-122.44392394,37.76693472,"{'type': 'Point', 'coordinates': [-122.443923939, 37.766934719]}",SUPERVISORIAL DISTRICT 8,8.0,EIGHT,Haight Ashbury,2025-01-19T03:36:00.000,2025-01-19T10:04:00.630,,,2010
264,The Diary of a Teenage Girl,2015,the magazine at 920 larkin,the magazine at 920 larkin,2024 a larkin st,76150.0,1150.0,489792.0,2024 a larkin st,2024.0,larkin,st,94109.0,8147000.0,-122.41972561,37.79662762,"{'type': 'Point', 'coordinates': [-122.419725607, 37.796627619]}",SUPERVISORIAL DISTRICT 3,3.0,THREE,Russian Hill,2025-01-19T03:38:00.000,2025-01-19T10:04:00.630,A,,2010
265,San Andreas,2015,at&t stadium,at&t stadium,Empty,,,,,,,,,,,,,,,,nan,,,,,2010
266,The Presidio,1988,"fort point (presidio, golden gate national recreation area)","fort point (presidio, golden gate national recreation area)",1521 b golden gate ave,42689.0,2689.0,472328.0,1521 b golden gate ave,1521.0,golden gate,ave,94115.0,6273000.0,-122.43627915,37.77885305,"{'type': 'Point', 'coordinates': [-122.436279145, 37.778853053]}",SUPERVISORIAL DISTRICT 5,5.0,FIVE,Western Addition,2025-01-19T03:38:00.000,2025-01-19T10:04:00.630,B,,1980
267,Surface,2022,baker beach,baker beach,1709 baker ct,56585.0,1585.0,486621.0,1709 baker ct,1709.0,baker,ct,94129.0,19019000.0,-122.48020609,37.79050384,"{'type': 'Point', 'coordinates': [-122.480206089, 37.790503841]}",SUPERVISORIAL DISTRICT 2,2.0,TWO,Presidio,2025-01-19T03:38:00.000,2025-01-19T10:04:00.630,,,2020
268,Ballers Season 3,2017,san remo hotel (2237 mason),san remo hotel (2237 mason),2237 mason st,87750.0,2750.0,276192.0,2237 mason st,2237.0,mason,st,94133.0,8834000.0,-122.41360419,37.80426655,"{'type': 'Point', 'coordinates': [-122.413604185, 37.804266547]}",SUPERVISORIAL DISTRICT 3,3.0,THREE,North Beach,2025-01-19T03:36:00.000,2025-01-19T10:04:00.630,,,2010
269,Confessions of a Burning Man,2003,Empty,Empty,Empty,,,,,,,,,,,,,,,,nan,,,,,2000
270,High Crimes,2002,chase h & q  (1 bush street at sansome),chase h & q  (1 bush street at sansome),1 sansome st,74467.0,4467.0,281190.0,1 sansome st,1.0,sansome,st,94104.0,11542000.0,-122.40094044,37.79048516,"{'type': 'Point', 'coordinates': [-122.400940441, 37.790485159]}",SUPERVISORIAL DISTRICT 3,3.0,THREE,Financial District/South Beach,2025-01-19T03:36:00.000,2025-01-19T10:04:00.630,,,2000
271,Magnum Force,1973,san francisco drydock (20th and illinois streets),san francisco drydock (20th and illinois streets),370 a francisco st,142865.0,2865.0,276017.0,370 a francisco st,370.0,francisco,st,94133.0,5760000.0,-122.41133108,37.80523289,"{'type': 'Point', 'coordinates': [-122.411331083, 37.805232888]}",SUPERVISORIAL DISTRICT 3,3.0,THREE,North Beach,2025-01-19T03:36:00.000,2025-01-19T10:04:00.630,A,,1970
272,The Bachelor,1999,merchant exchange (465 california street at leidesdorff),merchant exchange (465 california street at leidesdorff),6465 a california st,190364.0,364.0,422124.0,6465 a california st,6465.0,california,st,94121.0,3603000.0,-122.48685673,37.78355207,"{'type': 'Point', 'coordinates': [-122.486856727, 37.783552074]}",SUPERVISORIAL DISTRICT 1,1.0,ONE,Outer Richmond,2025-01-19T03:37:00.000,2025-01-19T10:04:00.630,A,,1990
273,Boys and Girls,2000,aquatic park (jefferson street),aquatic park (jefferson street),1 jefferson st,74279.0,4279.0,461105.0,1 jefferson st,1.0,jefferson,st,94133.0,7455000.0,-122.4132503,37.80805367,"{'type': 'Point', 'coordinates': [-122.413250304, 37.808053668]}",SUPERVISORIAL DISTRICT 3,3.0,THREE,North Beach,2025-01-19T03:38:00.000,2025-01-19T10:04:00.630,,,2000
274,The OA Part II,2019,broadway tunnel,broadway tunnel,25 broadway,106639.0,1639.0,483304.0,25 broadway,25.0,broadway,,94111.0,3142000.0,-122.39808845,37.79881715,"{'type': 'Point', 'coordinates': [-122.398088451, 37.798817153]}",SUPERVISORIAL DISTRICT 3,3.0,THREE,Financial District/South Beach,2025-01-19T03:38:00.000,2025-01-19T10:04:00.630,,,2010
275,Sense8,2015,375 castro st. and 17th between castro and diamond st.,375 castro st. and 17th between castro and diamond st.,1305 a castro st,23105.0,3105.0,479337.0,1305 a castro st,1305.0,castro,st,94114.0,3801000.0,-122.43377444,37.75102491,"{'type': 'Point', 'coordinates': [-122.433774435, 37.751024911]}",SUPERVISORIAL DISTRICT 8,8.0,EIGHT,Noe Valley,2025-01-19T03:38:00.000,2025-01-19T10:04:00.630,A,,2010
276,The OA Part II,2019,pier 43,pier 43,Empty,,,,,,,,,,,,,,,,nan,,,,,2010
277,Chance- Season 1 ep107,2016,1958 valencia st.,1958 valencia st.,198 valencia st,73378.0,3378.0,492683.0,198 valencia st,198.0,valencia,st,94103.0,13053000.0,-122.42254836,37.77005011,"{'type': 'Point', 'coordinates': [-122.422548362, 37.770050111]}",SUPERVISORIAL DISTRICT 8,8.0,EIGHT,Mission,2025-01-19T03:39:00.000,2025-01-19T10:04:00.630,,,2010
278,Tales of the City,2019,mission district,mission district,1 mission st,74368.0,4368.0,364873.0,1 mission st,1.0,mission,st,94105.0,9082000.0,-122.39288345,37.79322825,"{'type': 'Point', 'coordinates': [-122.39288345, 37.79322825]}",SUPERVISORIAL DISTRICT 6,6.0,SIX,Financial District/South Beach,2025-01-19T03:37:00.000,2025-01-19T10:04:00.630,,,2010
279,Magnum Force,1973,2190 washington street (pacific heights),2190 washington street (pacific heights),2190 washington st,84844.0,4844.0,286111.0,2190 washington st,2190.0,washington,st,94109.0,13436000.0,-122.42915125,37.7925412,"{'type': 'Point', 'coordinates': [-122.429151245, 37.792541203]}",SUPERVISORIAL DISTRICT 2,2.0,TWO,Pacific Heights,2025-01-19T03:36:00.000,2025-01-19T10:04:00.630,,,1970
280,Experiment in Terror,1962,george washington high school (600 32nd avenue ),george washington high school (600 32nd avenue ),3326 a washington st,132168.0,2168.0,292005.0,3326 a washington st,3326.0,washington,st,94118.0,13446000.0,-122.44795915,37.79013397,"{'type': 'Point', 'coordinates': [-122.447959146, 37.790133968]}",SUPERVISORIAL DISTRICT 2,2.0,TWO,Presidio Heights,2025-01-19T03:36:00.000,2025-01-19T10:04:00.630,A,,1960
281,The Competition,1980,pier 39,pier 39,Empty,,,,,,,,,,,,,,,,nan,,,,,1980
282,Rollerball,2002,Empty,Empty,Empty,,,,,,,,,,,,,,,,nan,,,,,2000
283,This Is Us,2022,lombard street at hyde,lombard street at hyde,819 d lombard st,210325.0,325.0,493042.0,819 d lombard st,819.0,lombard,st,94133.0,8446000.0,-122.41506986,37.80226449,"{'type': 'Point', 'coordinates': [-122.415069858, 37.802264492]}",SUPERVISORIAL DISTRICT 3,3.0,THREE,Russian Hill,2025-01-19T03:39:00.000,2025-01-19T10:04:00.630,D,,2020
284,The Lineup,1958,sutro baths (point lobos avenue),sutro baths (point lobos avenue),2 point lobos ave,121691.0,1691.0,305277.0,2 point lobos ave,2.0,point lobos,ave,94121.0,10536000.0,-122.50324321,37.7798566,"{'type': 'Point', 'coordinates': [-122.50324321, 37.779856606]}",SUPERVISORIAL DISTRICT 1,1.0,ONE,Outer Richmond,2025-01-19T03:36:00.000,2025-01-19T10:04:00.630,,,1950
285,Foul Play,1978,"asian art museum (200 larkin street, civic center)","asian art museum (200 larkin street, civic center)",2024 a larkin st,76150.0,1150.0,489792.0,2024 a larkin st,2024.0,larkin,st,94109.0,8147000.0,-122.41972561,37.79662762,"{'type': 'Point', 'coordinates': [-122.419725607, 37.796627619]}",SUPERVISORIAL DISTRICT 3,3.0,THREE,Russian Hill,2025-01-19T03:38:00.000,2025-01-19T10:04:00.630,A,,1970
286,Sense8 - Season 2,2016,mission creek harbor along channel st.,mission creek harbor along channel st.,213 mission creek,82305.0,2305.0,473258.0,213 mission creek,213.0,mission creek,,94158.0,3888000.0,-122.39232759,37.77407703,"{'type': 'Point', 'coordinates': [-122.392327587, 37.774077028]}",SUPERVISORIAL DISTRICT 6,6.0,SIX,Mission Bay,2025-01-19T03:38:00.000,2025-01-19T10:04:00.630,,,2010
287,Super Pumped: The Battle for Uber,2022,texas street at 19th street,texas street at 19th street,126 a texas st,20260.0,260.0,477676.0,126 a texas st,126.0,texas,st,94107.0,12539000.0,-122.3960565,37.76456349,"{'type': 'Point', 'coordinates': [-122.396056498, 37.764563495]}",SUPERVISORIAL DISTRICT 10,10.0,TEN,Potrero Hill,2025-01-19T03:38:00.000,2025-01-19T10:04:00.630,A,,2020
